{"type":"FeatureCollection","bbox":[139.755395,34.904285,140.865106,36.058163],"features":[{"type":"Feature","properties":{"P14_001":"千葉県","P14_002":"千葉市中央区","P14_003":"亥鼻2-5-6","P14_004":"19","P14_005":"19013","P14_006":"801","P14_007":"亥鼻保育所","P14_008":"3","P14_009":"150","P14_010":"数値地図","P14_011":"千葉県＿千葉hoikushoitiran.pdf","Name":"亥鼻保育所","Label":"亥鼻保育所","Add1":"千葉市中央区","Add2":"亥鼻2-5-6","Type":"認可保育所"},"geometry":{"type":"Point","coordinates":[140.127934,35.602727]}},{"type":"Feature","properties":{"P14_001":"千葉県","P14_002":"千葉市中央区","P14_003":"大森町268","P14_004":"19","P14_005":"19013","P14_006":"801","P14_007":"大森保育所","P14_008":"3","P14_009":"100","P14_010":"数値地図","P14_011":"千葉県＿千葉hoikushoitiran.pdf","Name":"大森保育所","Label":"大森保育所","Add1":"千葉市中央区","Add2":"大森町268","Type":"認可保育所"},"geometry":{"type":"Point","coordinates":[140.144265,35.580535]}},{"type":"Feature","properties":{"P14_001":"千葉県","P14_002":"千葉市中央区","P14_003":"生実町1940-1","P14_004":"19","P14_005":"19013","P14_006":"801","P14_007":"生実保育所","P14_008":"3","P14_009":"170","P14_010":"数値地図","P14_011":"千葉県＿千葉hoikushoitiran.pdf","Name":"生実保育所","Label":"生実保育所","Add1":"千葉市中央区","Add2":"生実町1940-1","Type":"認可保育所"},"geometry":{"type":"Point","coordinates":[140.145819,35.560786]}},{"type":"Feature","properties":{"P14_001":"千葉県","P14_002":"千葉市中央区","P14_003":"川戸町424-1","P14_004":"19","P14_005":"19013","P14_006":"801","P14_007":"川戸保育所","P14_008":"3","P14_009":"90","P14_010":"数値地図","P14_011":"千葉県＿千葉hoikushoitiran.pdf","Name":"川戸保育所","Label":"川戸保育所","Add1":"千葉市中央区","Add2":"川戸町424-1","Type":"認可保育所"},"geometry":{"type":"Point","coordinates":[140.164401,35.583285]}},{"type":"Feature","properties":{"P14_001":"千葉県","P14_002":"千葉市中央区","P14_003":"寒川町2-119","P14_004":"19","P14_005":"19013","P14_006":"801","P14_007":"寒川保育所","P14_008":"3","P14_009":"50","P14_010":"数値地図","P14_011":"千葉県＿千葉hoikushoitiran.pdf","Name":"寒川保育所","Label":"寒川保育所","Add1":"千葉市中央区","Add2":"寒川町2-119","Type":"認可保育所"},"geometry":{"type":"Point","coordinates":[140.122046,35.595755]}},{"type":"Feature","properties":{"P14_001":"千葉県","P14_002":"千葉市中央区","P14_003":"白旗2-6-11","P14_004":"19","P14_005":"19013","P14_006":"801","P14_007":"白旗保育所","P14_008":"3","P14_009":"160","P14_010":"数値地図","P14_011":"千葉県＿千葉hoikushoitiran.pdf","Name":"白旗保育所","Label":"白旗保育所","Add1":"千葉市中央区","Add2":"白旗2-6-11","Type":"認可保育所"},"geometry":{"type":"Point","coordinates":[140.140821,35.578368]}},{"type":"Feature","properties":{"P14_001":"千葉県","P14_002":"千葉市中央区","P14_003":"新宿2-15-2","P14_004":"19","P14_005":"19013","P14_006":"801","P14_007":"新宿保育所","P14_008":"3","P14_009":"120","P14_010":"数値地図","P14_011":"千葉県＿千葉hoikushoitiran.pdf","Name":"新宿保育所","Label":"新宿保育所","Add1":"千葉市中央区","Add2":"新宿2-15-2","Type":"認可保育所"},"geometry":{"type":"Point","coordinates":[140.114212,35.607059]}},{"type":"Feature","properties":{"P14_001":"千葉県","P14_002":"千葉市中央区","P14_003":"神明町27-6","P14_004":"19","P14_005":"19013","P14_006":"801","P14_007":"神明保育所","P14_008":"3","P14_009":"120","P14_010":"数値地図","P14_011":"千葉県＿千葉hoikushoitiran.pdf","Name":"神明保育所","Label":"神明保育所","Add1":"千葉市中央区","Add2":"神明町27-6","Type":"認可保育所"},"geometry":{"type":"Point","coordinates":[140.117018,35.601393]}},{"type":"Feature","properties":{"P14_001":"千葉県","P14_002":"千葉市中央区","P14_003":"蘇我2-3-18","P14_004":"19","P14_005":"19013","P14_006":"801","P14_007":"蘇我保育所","P14_008":"3","P14_009":"70","P14_010":"数値地図","P14_011":"千葉県＿千葉hoikushoitiran.pdf","Name":"蘇我保育所","Label":"蘇我保育所","Add1":"千葉市中央区","Add2":"蘇我2-3-18","Type":"認可保育所"},"geometry":{"type":"Point","coordinates":[140.131125,35.57249]}},{"type":"Feature","properties":{"P14_001":"千葉県","P14_002":"千葉市中央区","P14_003":"浜野町1346-5","P14_004":"19","P14_005":"19013","P14_006":"801","P14_007":"浜野保育所","P14_008":"3","P14_009":"120","P14_010":"数値地図","P14_011":"千葉県＿千葉hoikushoitiran.pdf","Name":"浜野保育所","Label":"浜野保育所","Add1":"千葉市中央区","Add2":"浜野町1346-5","Type":"認可保育所"},"geometry":{"type":"Point","coordinates":[140.129517,35.559425]}},{"type":"Feature","properties":{"P14_001":"千葉県","P14_002":"千葉市中央区","P14_003":"弁天3-8-10","P14_004":"19","P14_005":"19013","P14_006":"801","P14_007":"弁天保育所","P14_008":"3","P14_009":"90","P14_010":"数値地図","P14_011":"千葉県＿千葉hoikushoitiran.pdf","Name":"弁天保育所","Label":"弁天保育所","Add1":"千葉市中央区","Add2":"弁天3-8-10","Type":"認可保育所"},"geometry":{"type":"Point","coordinates":[140.114766,35.618751]}},{"type":"Feature","properties":{"P14_001":"千葉県","P14_002":"千葉市中央区","P14_003":"星久喜町1063-6","P14_004":"19","P14_005":"19013","P14_006":"801","P14_007":"星久喜保育所","P14_008":"3","P14_009":"90","P14_010":"数値地図","P14_011":"千葉県＿千葉hoikushoitiran.pdf","Name":"星久喜保育所","Label":"星久喜保育所","Add1":"千葉市中央区","Add2":"星久喜町1063-6","Type":"認可保育所"},"geometry":{"type":"Point","coordinates":[140.146766,35.598145]}},{"type":"Feature","properties":{"P14_001":"千葉県","P14_002":"千葉市中央区","P14_003":"都町2-26-5","P14_004":"19","P14_005":"19013","P14_006":"801","P14_007":"都保育所","P14_008":"3","P14_009":"120","P14_010":"数値地図","P14_011":"千葉県＿千葉hoikushoitiran.pdf","Name":"都保育所","Label":"都保育所","Add1":"千葉市中央区","Add2":"都町2-26-5","Type":"認可保育所"},"geometry":{"type":"Point","coordinates":[140.141821,35.612171]}},{"type":"Feature","properties":{"P14_001":"千葉県","P14_002":"千葉市中央区","P14_003":"今井2-12-7","P14_004":"19","P14_005":"19013","P14_006":"801","P14_007":"今井保育園","P14_008":"0","P14_009":"120","P14_010":"数値地図","P14_011":"千葉県＿千葉hoikushoitiran.pdf","Name":"今井保育園","Label":"今井保育園","Add1":"千葉市中央区","Add2":"今井2-12-7","Type":"認可保育所"},"geometry":{"type":"Point","coordinates":[140.128962,35.580145]}},{"type":"Feature","properties":{"P14_001":"千葉県","P14_002":"千葉市中央区","P14_003":"問屋町13-5","P14_004":"19","P14_005":"19013","P14_006":"801","P14_007":"いろは保育園","P14_008":"0","P14_009":"30","P14_010":"数値地図","P14_011":"千葉県＿千葉hoikushoitiran.pdf","Name":"いろは保育園","Label":"いろは保育園","Add1":"千葉市中央区","Add2":"問屋町13-5","Type":"認可保育所"},"geometry":{"type":"Point","coordinates":[140.109072,35.602969]}},{"type":"Feature","properties":{"P14_001":"千葉県","P14_002":"千葉市中央区","P14_003":"院内2-5-6","P14_004":"19","P14_005":"19013","P14_006":"801","P14_007":"院内保育園","P14_008":"0","P14_009":"90","P14_010":"数値地図","P14_011":"千葉県＿千葉hoikushoitiran.pdf","Name":"院内保育園","Label":"院内保育園","Add1":"千葉市中央区","Add2":"院内2-5-6","Type":"認可保育所"},"geometry":{"type":"Point","coordinates":[140.125516,35.614281]}},{"type":"Feature","properties":{"P14_001":"千葉県","P14_002":"千葉市中央区","P14_003":"弁天2-7-1","P14_004":"19","P14_005":"19013","P14_006":"801","P14_007":"植草弁天保育園","P14_008":"0","P14_009":"45","P14_010":"数値地図","P14_011":"千葉県＿千葉hoikushoitiran.pdf","Name":"植草弁天保育園","Label":"植草弁天保育園","Add1":"千葉市中央区","Add2":"弁天2-7-1","Type":"認可保育所"},"geometry":{"type":"Point","coordinates":[140.114767,35.615585]}},{"type":"Feature","properties":{"P14_001":"千葉県","P14_002":"千葉市中央区","P14_003":"大巌寺町457-5","P14_004":"19","P14_005":"19013","P14_006":"801","P14_007":"慈光保育園","P14_008":"0","P14_009":"90","P14_010":"数値地図","P14_011":"千葉県＿千葉hoikushoitiran.pdf","Name":"慈光保育園","Label":"慈光保育園","Add1":"千葉市中央区","Add2":"大巌寺町457-5","Type":"認可保育所"},"geometry":{"type":"Point","coordinates":[140.147025,35.573795]}},{"type":"Feature","properties":{"P14_001":"千葉県","P14_002":"千葉市中央区","P14_003":"末広4-17-3","P14_004":"19","P14_005":"19013","P14_006":"801","P14_007":"千葉寺保育園","P14_008":"0","P14_009":"149","P14_010":"数値地図","P14_011":"千葉県＿千葉hoikushoitiran.pdf","Name":"千葉寺保育園","Label":"千葉寺保育園","Add1":"千葉市中央区","Add2":"末広4-17-3","Type":"認可保育所"},"geometry":{"type":"Point","coordinates":[140.130852,35.590283]}},{"type":"Feature","properties":{"P14_001":"千葉県","P14_002":"千葉市中央区","P14_003":"中央港1-22-72F","P14_004":"19","P14_005":"19013","P14_006":"801","P14_007":"千葉みなとのぞみ保育園","P14_008":"4","P14_009":"30","P14_010":"数値地図","P14_011":"千葉県＿千葉hoikushoitiran.pdf","Name":"千葉みなとのぞみ保育園","Label":"千葉みなとのぞみ保育園","Add1":"千葉市中央区","Add2":"中央港1-22-72F","Type":"認可保育所"},"geometry":{"type":"Point","coordinates":[140.101304,35.604892]}},{"type":"Feature","properties":{"P14_001":"千葉県","P14_002":"千葉市中央区","P14_003":"中央港1-24-141F","P14_004":"19","P14_005":"19013","P14_006":"801","P14_007":"はまかぜ保育園","P14_008":"0","P14_009":"30","P14_010":"数値地図","P14_011":"千葉県＿千葉hoikushoitiran.pdf","Name":"はまかぜ保育園","Label":"はまかぜ保育園","Add1":"千葉市中央区","Add2":"中央港1-24-141F","Type":"認可保育所"},"geometry":{"type":"Point","coordinates":[140.100853,35.607801]}},{"type":"Feature","properties":{"P14_001":"千葉県","P14_002":"千葉市中央区","P14_003":"新宿2-5-132F","P14_004":"19","P14_005":"19013","P14_006":"801","P14_007":"ひなたぼっこ保育園","P14_008":"0","P14_009":"30","P14_010":"数値地図","P14_011":"千葉県＿千葉hoikushoitiran.pdf","Name":"ひなたぼっこ保育園","Label":"ひなたぼっこ保育園","Add1":"千葉市中央区","Add2":"新宿2-5-132F","Type":"認可保育所"},"geometry":{"type":"Point","coordinates":[140.116062,35.607033]}},{"type":"Feature","properties":{"P14_001":"千葉県","P14_002":"千葉市中央区","P14_003":"松ヶ丘町563-1","P14_004":"19","P14_005":"19013","P14_006":"801","P14_007":"松ヶ丘保育園","P14_008":"0","P14_009":"90","P14_010":"数値地図","P14_011":"千葉県＿千葉hoikushoitiran.pdf","Name":"松ヶ丘保育園","Label":"松ヶ丘保育園","Add1":"千葉市中央区","Add2":"松ヶ丘町563-1","Type":"認可保育所"},"geometry":{"type":"Point","coordinates":[140.154735,35.58584]}},{"type":"Feature","properties":{"P14_001":"千葉県","P14_002":"千葉市中央区","P14_003":"村田町668-2","P14_004":"19","P14_005":"19013","P14_006":"801","P14_007":"明徳浜野駅保育園","P14_008":"0","P14_009":"36","P14_010":"数値地図","P14_011":"千葉県＿千葉hoikushoitiran.pdf","Name":"明徳浜野駅保育園","Label":"明徳浜野駅保育園","Add1":"千葉市中央区","Add2":"村田町668-2","Type":"認可保育所"},"geometry":{"type":"Point","coordinates":[140.131852,35.551757]}},{"type":"Feature","properties":{"P14_001":"千葉県","P14_002":"千葉市花見川区","P14_003":"こてはし台5-12","P14_004":"19","P14_005":"19013","P14_006":"801","P14_007":"こてはし台保育所","P14_008":"3","P14_009":"150","P14_010":"数値地図","P14_011":"千葉県＿千葉hoikushoitiran.pdf","Name":"こてはし台保育所","Label":"こてはし台保育所","Add1":"千葉市花見川区","Add2":"こてはし台5-12","Type":"認可保育所"},"geometry":{"type":"Point","coordinates":[140.120128,35.690533]}},{"type":"Feature","properties":{"P14_001":"千葉県","P14_002":"千葉市花見川区","P14_003":"さつきが丘2-32-1","P14_004":"19","P14_005":"19013","P14_006":"801","P14_007":"さつきが丘第一保育所","P14_008":"3","P14_009":"150","P14_010":"数値地図","P14_011":"千葉県＿千葉hoikushoitiran.pdf","Name":"さつきが丘第一保育所","Label":"さつきが丘第一保育所","Add1":"千葉市花見川区","Add2":"さつきが丘2-32-1","Type":"認可保育所"},"geometry":{"type":"Point","coordinates":[140.092656,35.666521]}},{"type":"Feature","properties":{"P14_001":"千葉県","P14_002":"千葉市花見川区","P14_003":"さつきが丘1-32-1","P14_004":"19","P14_005":"19013","P14_006":"801","P14_007":"さつきが丘第二保育所","P14_008":"3","P14_009":"90","P14_010":"数値地図","P14_011":"千葉県＿千葉hoikushoitiran.pdf","Name":"さつきが丘第二保育所","Label":"さつきが丘第二保育所","Add1":"千葉市花見川区","Add2":"さつきが丘1-32-1","Type":"認可保育所"},"geometry":{"type":"Point","coordinates":[140.096294,35.66516]}},{"type":"Feature","properties":{"P14_001":"千葉県","P14_002":"千葉市花見川区","P14_003":"長作町739-3","P14_004":"19","P14_005":"19013","P14_006":"801","P14_007":"長作保育所","P14_008":"3","P14_009":"60","P14_010":"数値地図","P14_011":"千葉県＿千葉hoikushoitiran.pdf","Name":"長作保育所","Label":"長作保育所","Add1":"千葉市花見川区","Add2":"長作町739-3","Type":"認可保育所"},"geometry":{"type":"Point","coordinates":[140.072185,35.674659]}},{"type":"Feature","properties":{"P14_001":"千葉県","P14_002":"千葉市花見川区","P14_003":"西小中台5-20","P14_004":"19","P14_005":"19013","P14_006":"801","P14_007":"西小中台保育所","P14_008":"3","P14_009":"100","P14_010":"数値地図","P14_011":"千葉県＿千葉hoikushoitiran.pdf","Name":"西小中台保育所","Label":"西小中台保育所","Add1":"千葉市花見川区","Add2":"西小中台5-20","Type":"認可保育所"},"geometry":{"type":"Point","coordinates":[140.087379,35.651856]}},{"type":"Feature","properties":{"P14_001":"千葉県","P14_002":"千葉市花見川区","P14_003":"花見川3-23-101","P14_004":"19","P14_005":"19013","P14_006":"801","P14_007":"花見川第一保育所","P14_008":"3","P14_009":"120","P14_010":"数値地図","P14_011":"千葉県＿千葉hoikushoitiran.pdf","Name":"花見川第一保育所","Label":"花見川第一保育所","Add1":"千葉市花見川区","Add2":"花見川3-23-101","Type":"認可保育所"},"geometry":{"type":"Point","coordinates":[140.095516,35.690685]}},{"type":"Feature","properties":{"P14_001":"千葉県","P14_002":"千葉市花見川区","P14_003":"花見川2-41-101","P14_004":"19","P14_005":"19013","P14_006":"801","P14_007":"花見川第二保育所","P14_008":"3","P14_009":"155","P14_010":"数値地図","P14_011":"千葉県＿千葉hoikushoitiran.pdf","Name":"花見川第二保育所","Label":"花見川第二保育所","Add1":"千葉市花見川区","Add2":"花見川2-41-101","Type":"認可保育所"},"geometry":{"type":"Point","coordinates":[140.093988,35.687602]}},{"type":"Feature","properties":{"P14_001":"千葉県","P14_002":"千葉市花見川区","P14_003":"花見川4-2","P14_004":"19","P14_005":"19013","P14_006":"801","P14_007":"花見川第三保育所","P14_008":"3","P14_009":"100","P14_010":"数値地図","P14_011":"千葉県＿千葉hoikushoitiran.pdf","Name":"花見川第三保育所","Label":"花見川第三保育所","Add1":"千葉市花見川区","Add2":"花見川4-2","Type":"認可保育所"},"geometry":{"type":"Point","coordinates":[140.099043,35.695462]}},{"type":"Feature","properties":{"P14_001":"千葉県","P14_002":"千葉市花見川区","P14_003":"幕張町5-417-260","P14_004":"19","P14_005":"19013","P14_006":"801","P14_007":"幕張第一保育所","P14_008":"3","P14_009":"85","P14_010":"数値地図","P14_011":"千葉県＿千葉hoikushoitiran.pdf","Name":"幕張第一保育所","Label":"幕張第一保育所","Add1":"千葉市花見川区","Add2":"幕張町5-417-260","Type":"認可保育所"},"geometry":{"type":"Point","coordinates":[140.053346,35.655099]}},{"type":"Feature","properties":{"P14_001":"千葉県","P14_002":"千葉市花見川区","P14_003":"幕張町4-636","P14_004":"19","P14_005":"19013","P14_006":"801","P14_007":"幕張第二保育所","P14_008":"3","P14_009":"130","P14_010":"数値地図","P14_011":"千葉県＿千葉hoikushoitiran.pdf","Name":"幕張第二保育所","Label":"幕張第二保育所","Add1":"千葉市花見川区","Add2":"幕張町4-636","Type":"認可保育所"},"geometry":{"type":"Point","coordinates":[140.057791,35.66162]}},{"type":"Feature","properties":{"P14_001":"千葉県","P14_002":"千葉市花見川区","P14_003":"幕張町3-7730-5","P14_004":"19","P14_005":"19013","P14_006":"801","P14_007":"幕張第三保育所","P14_008":"3","P14_009":"150","P14_010":"数値地図","P14_011":"千葉県＿千葉hoikushoitiran.pdf","Name":"幕張第三保育所","Label":"幕張第三保育所","Add1":"千葉市花見川区","Add2":"幕張町3-7730-5","Type":"認可保育所"},"geometry":{"type":"Point","coordinates":[140.047521,35.656494]}},{"type":"Feature","properties":{"P14_001":"千葉県","P14_002":"千葉市花見川区","P14_003":"検見川町3-331-4","P14_004":"19","P14_005":"19013","P14_006":"801","P14_007":"ちどり保育園","P14_008":"0","P14_009":"120","P14_010":"数値地図","P14_011":"千葉県＿千葉hoikushoitiran.pdf","Name":"ちどり保育園","Label":"ちどり保育園","Add1":"千葉市花見川区","Add2":"検見川町3-331-4","Type":"認可保育所"},"geometry":{"type":"Point","coordinates":[140.069547,35.646273]}},{"type":"Feature","properties":{"P14_001":"千葉県","P14_002":"千葉市花見川区","P14_003":"幕張町4-608-1","P14_004":"19","P14_005":"19013","P14_006":"801","P14_007":"幕張いもっこ保育園","P14_008":"0","P14_009":"59","P14_010":"数値地図","P14_011":"千葉県＿千葉hoikushoitiran.pdf","Name":"幕張いもっこ保育園","Label":"幕張いもっこ保育園","Add1":"千葉市花見川区","Add2":"幕張町4-608-1","Type":"認可保育所"},"geometry":{"type":"Point","coordinates":[140.055723,35.660432]}},{"type":"Feature","properties":{"P14_001":"千葉県","P14_002":"千葉市花見川区","P14_003":"幕張町2-972","P14_004":"19","P14_005":"19013","P14_006":"801","P14_007":"みどり学園付属保育園","P14_008":"0","P14_009":"120","P14_010":"数値地図","P14_011":"千葉県＿千葉hoikushoitiran.pdf","Name":"みどり学園付属保育園","Label":"みどり学園付属保育園","Add1":"千葉市花見川区","Add2":"幕張町2-972","Type":"認可保育所"},"geometry":{"type":"Point","coordinates":[140.049049,35.662771]}},{"type":"Feature","properties":{"P14_001":"千葉県","P14_002":"千葉市稲毛区","P14_003":"あやめ台1-15-101","P14_004":"19","P14_005":"19013","P14_006":"801","P14_007":"あやめ台第一保育所","P14_008":"3","P14_009":"100","P14_010":"数値地図","P14_011":"千葉県＿千葉hoikushoitiran.pdf","Name":"あやめ台第一保育所","Label":"あやめ台第一保育所","Add1":"千葉市稲毛区","Add2":"あやめ台1-15-101","Type":"認可保育所"},"geometry":{"type":"Point","coordinates":[140.116043,35.650107]}},{"type":"Feature","properties":{"P14_001":"千葉県","P14_002":"千葉市稲毛区","P14_003":"あやめ台3-19","P14_004":"19","P14_005":"19013","P14_006":"801","P14_007":"あやめ台第二保育所","P14_008":"3","P14_009":"90","P14_010":"数値地図","P14_011":"千葉県＿千葉hoikushoitiran.pdf","Name":"あやめ台第二保育所","Label":"あやめ台第二保育所","Add1":"千葉市稲毛区","Add2":"あやめ台3-19","Type":"認可保育所"},"geometry":{"type":"Point","coordinates":[140.111571,35.648357]}},{"type":"Feature","properties":{"P14_001":"千葉県","P14_002":"千葉市稲毛区","P14_003":"黒砂2-4-24","P14_004":"19","P14_005":"19013","P14_006":"801","P14_007":"黒砂保育所","P14_008":"3","P14_009":"90","P14_010":"数値地図","P14_011":"千葉県＿千葉hoikushoitiran.pdf","Name":"黒砂保育所","Label":"黒砂保育所","Add1":"千葉市稲毛区","Add2":"黒砂2-4-24","Type":"認可保育所"},"geometry":{"type":"Point","coordinates":[140.093657,35.626832]}},{"type":"Feature","properties":{"P14_001":"千葉県","P14_002":"千葉市稲毛区","P14_003":"小仲台9-30-2","P14_004":"19","P14_005":"19013","P14_006":"801","P14_007":"小中台保育所","P14_008":"3","P14_009":"90","P14_010":"数値地図","P14_011":"千葉県＿千葉hoikushoitiran.pdf","Name":"小中台保育所","Label":"小中台保育所","Add1":"千葉市稲毛区","Add2":"小仲台9-30-2","Type":"認可保育所"},"geometry":{"type":"Point","coordinates":[140.097017,35.647856]}},{"type":"Feature","properties":{"P14_001":"千葉県","P14_002":"千葉市稲毛区","P14_003":"小深町261-7","P14_004":"19","P14_005":"19013","P14_006":"801","P14_007":"小深保育所","P14_008":"3","P14_009":"80","P14_010":"数値地図","P14_011":"千葉県＿千葉hoikushoitiran.pdf","Name":"小深保育所","Label":"小深保育所","Add1":"千葉市稲毛区","Add2":"小深町261-7","Type":"認可保育所"},"geometry":{"type":"Point","coordinates":[140.150235,35.66083]}},{"type":"Feature","properties":{"P14_001":"千葉県","P14_002":"千葉市稲毛区","P14_003":"園生町1325-1","P14_004":"19","P14_005":"19013","P14_006":"801","P14_007":"園生保育所","P14_008":"3","P14_009":"110","P14_010":"数値地図","P14_011":"千葉県＿千葉hoikushoitiran.pdf","Name":"園生保育所","Label":"園生保育所","Add1":"千葉市稲毛区","Add2":"園生町1325-1","Type":"認可保育所"},"geometry":{"type":"Point","coordinates":[140.123931,35.65244]}},{"type":"Feature","properties":{"P14_001":"千葉県","P14_002":"千葉市稲毛区","P14_003":"千草台1-1-27","P14_004":"19","P14_005":"19013","P14_006":"801","P14_007":"千草台保育所","P14_008":"3","P14_009":"120","P14_010":"数値地図","P14_011":"千葉県＿千葉hoikushoitiran.pdf","Name":"千草台保育所","Label":"千草台保育所","Add1":"千葉市稲毛区","Add2":"千草台1-1-27","Type":"認可保育所"},"geometry":{"type":"Point","coordinates":[140.118291,35.635637]}},{"type":"Feature","properties":{"P14_001":"千葉県","P14_002":"千葉市稲毛区","P14_003":"天台1-10-6","P14_004":"19","P14_005":"19013","P14_006":"801","P14_007":"天台保育所","P14_008":"3","P14_009":"90","P14_010":"数値地図","P14_011":"千葉県＿千葉hoikushoitiran.pdf","Name":"天台保育所","Label":"天台保育所","Add1":"千葉市稲毛区","Add2":"天台1-10-6","Type":"認可保育所"},"geometry":{"type":"Point","coordinates":[140.11457,35.630971]}},{"type":"Feature","properties":{"P14_001":"千葉県","P14_002":"千葉市稲毛区","P14_003":"轟町1-12-13","P14_004":"19","P14_005":"19013","P14_006":"801","P14_007":"轟保育所","P14_008":"3","P14_009":"160","P14_010":"数値地図","P14_011":"千葉県＿千葉hoikushoitiran.pdf","Name":"轟保育所","Label":"轟保育所","Add1":"千葉市稲毛区","Add2":"轟町1-12-13","Type":"認可保育所"},"geometry":{"type":"Point","coordinates":[140.11021,35.624777]}},{"type":"Feature","properties":{"P14_001":"千葉県","P14_002":"千葉市稲毛区","P14_003":"長沼原町242-2","P14_004":"19","P14_005":"19013","P14_006":"801","P14_007":"長沼原保育所","P14_008":"3","P14_009":"70","P14_010":"数値地図","P14_011":"千葉県＿千葉hoikushoitiran.pdf","Name":"長沼原保育所","Label":"長沼原保育所","Add1":"千葉市稲毛区","Add2":"長沼原町242-2","Type":"認可保育所"},"geometry":{"type":"Point","coordinates":[140.124625,35.670299]}},{"type":"Feature","properties":{"P14_001":"千葉県","P14_002":"千葉市稲毛区","P14_003":"緑町2-22-1","P14_004":"19","P14_005":"19013","P14_006":"801","P14_007":"緑町保育所","P14_008":"3","P14_009":"80","P14_010":"数値地図","P14_011":"千葉県＿千葉hoikushoitiran.pdf","Name":"緑町保育所","Label":"緑町保育所","Add1":"千葉市稲毛区","Add2":"緑町2-22-1","Type":"認可保育所"},"geometry":{"type":"Point","coordinates":[140.095379,35.623304]}},{"type":"Feature","properties":{"P14_001":"千葉県","P14_002":"千葉市稲毛区","P14_003":"園生町238-56","P14_004":"19","P14_005":"19013","P14_006":"801","P14_007":"宮野木保育所","P14_008":"3","P14_009":"150","P14_010":"数値地図","P14_011":"千葉県＿千葉hoikushoitiran.pdf","Name":"宮野木保育所","Label":"宮野木保育所","Add1":"千葉市稲毛区","Add2":"園生町238-56","Type":"認可保育所"},"geometry":{"type":"Point","coordinates":[140.101739,35.652356]}},{"type":"Feature","properties":{"P14_001":"千葉県","P14_002":"千葉市稲毛区","P14_003":"小仲台2-10-1","P14_004":"19","P14_005":"19013","P14_006":"801","P14_007":"稲毛保育園","P14_008":"0","P14_009":"120","P14_010":"数値地図","P14_011":"千葉県＿千葉hoikushoitiran.pdf","Name":"稲毛保育園","Label":"稲毛保育園","Add1":"千葉市稲毛区","Add2":"小仲台2-10-1","Type":"認可保育所"},"geometry":{"type":"Point","coordinates":[140.094517,35.638191]}},{"type":"Feature","properties":{"P14_001":"千葉県","P14_002":"千葉市稲毛区","P14_003":"小仲台6-12-16","P14_004":"19","P14_005":"19013","P14_006":"801","P14_007":"稲毛すきっぷ保育園","P14_008":"4","P14_009":"30","P14_010":"数値地図","P14_011":"千葉県＿千葉hoikushoitiran.pdf","Name":"稲毛すきっぷ保育園","Label":"稲毛すきっぷ保育園","Add1":"千葉市稲毛区","Add2":"小仲台6-12-16","Type":"認可保育所"},"geometry":{"type":"Point","coordinates":[140.093421,35.640071]}},{"type":"Feature","properties":{"P14_001":"千葉県","P14_002":"千葉市稲毛区","P14_003":"小仲台5-3-2","P14_004":"19","P14_005":"19013","P14_006":"801","P14_007":"稲毛ひだまり保育園","P14_008":"0","P14_009":"59","P14_010":"数値地図","P14_011":"千葉県＿千葉hoikushoitiran.pdf","Name":"稲毛ひだまり保育園","Label":"稲毛ひだまり保育園","Add1":"千葉市稲毛区","Add2":"小仲台5-3-2","Type":"認可保育所"},"geometry":{"type":"Point","coordinates":[140.096326,35.641534]}},{"type":"Feature","properties":{"P14_001":"千葉県","P14_002":"千葉市稲毛区","P14_003":"稲毛東2-17-132F","P14_004":"19","P14_005":"19013","P14_006":"801","P14_007":"いなほ保育園","P14_008":"4","P14_009":"45","P14_010":"数値地図","P14_011":"千葉県＿千葉hoikushoitiran.pdf","Name":"いなほ保育園","Label":"いなほ保育園","Add1":"千葉市稲毛区","Add2":"稲毛東2-17-132F","Type":"認可保育所"},"geometry":{"type":"Point","coordinates":[140.088086,35.637784]}},{"type":"Feature","properties":{"P14_001":"千葉県","P14_002":"千葉市稲毛区","P14_003":"作草部町698-3","P14_004":"19","P14_005":"19013","P14_006":"801","P14_007":"作草部保育園","P14_008":"0","P14_009":"90","P14_010":"数値地図","P14_011":"千葉県＿千葉hoikushoitiran.pdf","Name":"作草部保育園","Label":"作草部保育園","Add1":"千葉市稲毛区","Add2":"作草部町698-3","Type":"認可保育所"},"geometry":{"type":"Point","coordinates":[140.124736,35.627834]}},{"type":"Feature","properties":{"P14_001":"千葉県","P14_002":"千葉市稲毛区","P14_003":"山王町153-16","P14_004":"19","P14_005":"19013","P14_006":"801","P14_007":"山王保育園","P14_008":"0","P14_009":"45","P14_010":"数値地図","P14_011":"千葉県＿千葉hoikushoitiran.pdf","Name":"山王保育園","Label":"山王保育園","Add1":"千葉市稲毛区","Add2":"山王町153-16","Type":"認可保育所"},"geometry":{"type":"Point","coordinates":[140.140121,35.664934]}},{"type":"Feature","properties":{"P14_001":"千葉県","P14_002":"千葉市稲毛区","P14_003":"小仲台8-4-62F","P14_004":"19","P14_005":"19013","P14_006":"801","P14_007":"ﾁｬｲﾙﾄﾞｶﾞｰﾃﾞﾝ保育園","P14_008":"0","P14_009":"110","P14_010":"数値地図","P14_011":"千葉県＿千葉hoikushoitiran.pdf","Name":"ﾁｬｲﾙﾄﾞｶﾞｰﾃﾞﾝ保育園","Label":"ﾁｬｲﾙﾄﾞｶﾞｰﾃﾞﾝ保育園","Add1":"千葉市稲毛区","Add2":"小仲台8-4-62F","Type":"認可保育所"},"geometry":{"type":"Point","coordinates":[140.086606,35.647201]}},{"type":"Feature","properties":{"P14_001":"千葉県","P14_002":"千葉市稲毛区","P14_003":"小仲台8-21-1","P14_004":"19","P14_005":"19013","P14_006":"801","P14_007":"南小中台保育園","P14_008":"0","P14_009":"90","P14_010":"数値地図","P14_011":"千葉県＿千葉hoikushoitiran.pdf","Name":"南小中台保育園","Label":"南小中台保育園","Add1":"千葉市稲毛区","Add2":"小仲台8-21-1","Type":"認可保育所"},"geometry":{"type":"Point","coordinates":[140.090323,35.644746]}},{"type":"Feature","properties":{"P14_001":"千葉県","P14_002":"千葉市若葉区","P14_003":"大宮台7-8-2","P14_004":"19","P14_005":"19013","P14_006":"801","P14_007":"大宮台保育所","P14_008":"3","P14_009":"90","P14_010":"数値地図","P14_011":"千葉県＿千葉hoikushoitiran.pdf","Name":"大宮台保育所","Label":"大宮台保育所","Add1":"千葉市若葉区","Add2":"大宮台7-8-2","Type":"認可保育所"},"geometry":{"type":"Point","coordinates":[140.181094,35.596254]}},{"type":"Feature","properties":{"P14_001":"千葉県","P14_002":"千葉市若葉区","P14_003":"小倉台4-18-2","P14_004":"19","P14_005":"19013","P14_006":"801","P14_007":"小倉台保育所","P14_008":"3","P14_009":"55","P14_010":"数値地図","P14_011":"千葉県＿千葉hoikushoitiran.pdf","Name":"小倉台保育所","Label":"小倉台保育所","Add1":"千葉市若葉区","Add2":"小倉台4-18-2","Type":"認可保育所"},"geometry":{"type":"Point","coordinates":[140.171097,35.628615]}},{"type":"Feature","properties":{"P14_001":"千葉県","P14_002":"千葉市若葉区","P14_003":"坂月町294-1","P14_004":"19","P14_005":"19013","P14_006":"801","P14_007":"坂月保育所","P14_008":"3","P14_009":"70","P14_010":"数値地図","P14_011":"千葉県＿千葉hoikushoitiran.pdf","Name":"坂月保育所","Label":"坂月保育所","Add1":"千葉市若葉区","Add2":"坂月町294-1","Type":"認可保育所"},"geometry":{"type":"Point","coordinates":[140.180832,35.612622]}},{"type":"Feature","properties":{"P14_001":"千葉県","P14_002":"千葉市若葉区","P14_003":"桜木1-40-1","P14_004":"19","P14_005":"19013","P14_006":"801","P14_007":"桜木保育所","P14_008":"3","P14_009":"140","P14_010":"数値地図","P14_011":"千葉県＿千葉hoikushoitiran.pdf","Name":"桜木保育所","Label":"桜木保育所","Add1":"千葉市若葉区","Add2":"桜木1-40-1","Type":"認可保育所"},"geometry":{"type":"Point","coordinates":[140.156517,35.617696]}},{"type":"Feature","properties":{"P14_001":"千葉県","P14_002":"千葉市若葉区","P14_003":"更科町2073-27","P14_004":"19","P14_005":"19013","P14_006":"801","P14_007":"更科保育所","P14_008":"3","P14_009":"40","P14_010":"数値地図","P14_011":"千葉県＿千葉hoikushoitiran.pdf","Name":"更科保育所","Label":"更科保育所","Add1":"千葉市若葉区","Add2":"更科町2073-27","Type":"認可保育所"},"geometry":{"type":"Point","coordinates":[140.227728,35.620393]}},{"type":"Feature","properties":{"P14_001":"千葉県","P14_002":"千葉市若葉区","P14_003":"多部田町754-39","P14_004":"19","P14_005":"19013","P14_006":"801","P14_007":"多部田保育所","P14_008":"3","P14_009":"70","P14_010":"数値地図","P14_011":"千葉県＿千葉hoikushoitiran.pdf","Name":"多部田保育所","Label":"多部田保育所","Add1":"千葉市若葉区","Add2":"多部田町754-39","Type":"認可保育所"},"geometry":{"type":"Point","coordinates":[140.195065,35.59781]}},{"type":"Feature","properties":{"P14_001":"千葉県","P14_002":"千葉市若葉区","P14_003":"千城台西3-8-1","P14_004":"19","P14_005":"19013","P14_006":"801","P14_007":"千城台西保育所","P14_008":"3","P14_009":"110","P14_010":"数値地図","P14_011":"千葉県＿千葉hoikushoitiran.pdf","Name":"千城台西保育所","Label":"千城台西保育所","Add1":"千葉市若葉区","Add2":"千城台西3-8-1","Type":"認可保育所"},"geometry":{"type":"Point","coordinates":[140.181454,35.618587]}},{"type":"Feature","properties":{"P14_001":"千葉県","P14_002":"千葉市若葉区","P14_003":"千城台東2-8-1","P14_004":"19","P14_005":"19013","P14_006":"801","P14_007":"千城台東第一保育所","P14_008":"3","P14_009":"180","P14_010":"数値地図","P14_011":"千葉県＿千葉hoikushoitiran.pdf","Name":"千城台東第一保育所","Label":"千城台東第一保育所","Add1":"千葉市若葉区","Add2":"千城台東2-8-1","Type":"認可保育所"},"geometry":{"type":"Point","coordinates":[140.19348,35.619253]}},{"type":"Feature","properties":{"P14_001":"千葉県","P14_002":"千葉市若葉区","P14_003":"千城台東4-33-1","P14_004":"19","P14_005":"19013","P14_006":"801","P14_007":"千城台東第二保育所","P14_008":"3","P14_009":"110","P14_010":"数値地図","P14_011":"千葉県＿千葉hoikushoitiran.pdf","Name":"千城台東第二保育所","Label":"千城台東第二保育所","Add1":"千葉市若葉区","Add2":"千城台東4-33-1","Type":"認可保育所"},"geometry":{"type":"Point","coordinates":[140.200091,35.618614]}},{"type":"Feature","properties":{"P14_001":"千葉県","P14_002":"千葉市若葉区","P14_003":"都賀の台3-6-1","P14_004":"19","P14_005":"19013","P14_006":"801","P14_007":"都賀の台保育所","P14_008":"3","P14_009":"115","P14_010":"数値地図","P14_011":"千葉県＿千葉hoikushoitiran.pdf","Name":"都賀の台保育所","Label":"都賀の台保育所","Add1":"千葉市若葉区","Add2":"都賀の台3-6-1","Type":"認可保育所"},"geometry":{"type":"Point","coordinates":[140.144097,35.643721]}},{"type":"Feature","properties":{"P14_001":"千葉県","P14_002":"千葉市若葉区","P14_003":"野呂町622","P14_004":"19","P14_005":"19013","P14_006":"801","P14_007":"野呂保育所","P14_008":"3","P14_009":"50","P14_010":"数値地図","P14_011":"千葉県＿千葉hoikushoitiran.pdf","Name":"野呂保育所","Label":"野呂保育所","Add1":"千葉市若葉区","Add2":"野呂町622","Type":"認可保育所"},"geometry":{"type":"Point","coordinates":[140.230259,35.583534]}},{"type":"Feature","properties":{"P14_001":"千葉県","P14_002":"千葉市若葉区","P14_003":"都賀1-1-1","P14_004":"19","P14_005":"19013","P14_006":"801","P14_007":"旭ヶ丘保育園","P14_008":"0","P14_009":"120","P14_010":"数値地図","P14_011":"千葉県＿千葉hoikushoitiran.pdf","Name":"旭ヶ丘保育園","Label":"旭ヶ丘保育園","Add1":"千葉市若葉区","Add2":"都賀1-1-1","Type":"認可保育所"},"geometry":{"type":"Point","coordinates":[140.143543,35.63165]}},{"type":"Feature","properties":{"P14_001":"千葉県","P14_002":"千葉市若葉区","P14_003":"西都賀3-17-7","P14_004":"19","P14_005":"19013","P14_006":"801","P14_007":"キッズマーム保育園","P14_008":"4","P14_009":"30","P14_010":"数値地図","P14_011":"千葉県＿千葉hoikushoitiran.pdf","Name":"キッズマーム保育園","Label":"キッズマーム保育園","Add1":"千葉市若葉区","Add2":"西都賀3-17-7","Type":"認可保育所"},"geometry":{"type":"Point","coordinates":[140.149908,35.637706]}},{"type":"Feature","properties":{"P14_001":"千葉県","P14_002":"千葉市若葉区","P14_003":"若松町2106-3","P14_004":"19","P14_005":"19013","P14_006":"801","P14_007":"すずらん保育園","P14_008":"0","P14_009":"90","P14_010":"数値地図","P14_011":"千葉県＿千葉hoikushoitiran.pdf","Name":"すずらん保育園","Label":"すずらん保育園","Add1":"千葉市若葉区","Add2":"若松町2106-3","Type":"認可保育所"},"geometry":{"type":"Point","coordinates":[140.170402,35.636141]}},{"type":"Feature","properties":{"P14_001":"千葉県","P14_002":"千葉市若葉区","P14_003":"みつわ台3-12-1","P14_004":"19","P14_005":"19013","P14_006":"801","P14_007":"たいよう保育園","P14_008":"0","P14_009":"90","P14_010":"数値地図","P14_011":"千葉県＿千葉hoikushoitiran.pdf","Name":"たいよう保育園","Label":"たいよう保育園","Add1":"千葉市若葉区","Add2":"みつわ台3-12-1","Type":"認可保育所"},"geometry":{"type":"Point","coordinates":[140.135736,35.639527]}},{"type":"Feature","properties":{"P14_001":"千葉県","P14_002":"千葉市若葉区","P14_003":"若松町531-197","P14_004":"19","P14_005":"19013","P14_006":"801","P14_007":"千葉聖心保育園","P14_008":"0","P14_009":"45","P14_010":"数値地図","P14_011":"千葉県＿千葉hoikushoitiran.pdf","Name":"千葉聖心保育園","Label":"千葉聖心保育園","Add1":"千葉市若葉区","Add2":"若松町531-197","Type":"認可保育所"},"geometry":{"type":"Point","coordinates":[140.146566,35.646394]}},{"type":"Feature","properties":{"P14_001":"千葉県","P14_002":"千葉市若葉区","P14_003":"みつわ台5-8-8","P14_004":"19","P14_005":"19013","P14_006":"801","P14_007":"みつわ台保育園","P14_008":"0","P14_009":"120","P14_010":"数値地図","P14_011":"千葉県＿千葉hoikushoitiran.pdf","Name":"みつわ台保育園","Label":"みつわ台保育園","Add1":"千葉市若葉区","Add2":"みつわ台5-8-8","Type":"認可保育所"},"geometry":{"type":"Point","coordinates":[140.134319,35.64722]}},{"type":"Feature","properties":{"P14_001":"千葉県","P14_002":"千葉市若葉区","P14_003":"若松町331","P14_004":"19","P14_005":"19013","P14_006":"801","P14_007":"若竹保育園","P14_008":"0","P14_009":"150","P14_010":"数値地図","P14_011":"千葉県＿千葉hoikushoitiran.pdf","Name":"若竹保育園","Label":"若竹保育園","Add1":"千葉市若葉区","Add2":"若松町331","Type":"認可保育所"},"geometry":{"type":"Point","coordinates":[140.174512,35.642196]}},{"type":"Feature","properties":{"P14_001":"千葉県","P14_002":"千葉市緑区","P14_003":"平山町138","P14_004":"19","P14_005":"19013","P14_006":"801","P14_007":"平山保育所","P14_008":"3","P14_009":"115","P14_010":"数値地図","P14_011":"千葉県＿千葉hoikushoitiran.pdf","Name":"平山保育所","Label":"平山保育所","Add1":"千葉市緑区","Add2":"平山町138","Type":"認可保育所"},"geometry":{"type":"Point","coordinates":[140.182263,35.573646]}},{"type":"Feature","properties":{"P14_001":"千葉県","P14_002":"千葉市緑区","P14_003":"誉田町2-298","P14_004":"19","P14_005":"19013","P14_006":"801","P14_007":"誉田保育所","P14_008":"3","P14_009":"150","P14_010":"数値地図","P14_011":"千葉県＿千葉hoikushoitiran.pdf","Name":"誉田保育所","Label":"誉田保育所","Add1":"千葉市緑区","Add2":"誉田町2-298","Type":"認可保育所"},"geometry":{"type":"Point","coordinates":[140.205481,35.546417]}},{"type":"Feature","properties":{"P14_001":"千葉県","P14_002":"千葉市緑区","P14_003":"おゆみ野2-7","P14_004":"19","P14_005":"19013","P14_006":"801","P14_007":"おゆみ野保育園","P14_008":"0","P14_009":"90","P14_010":"数値地図","P14_011":"千葉県＿千葉hoikushoitiran.pdf","Name":"おゆみ野保育園","Label":"おゆみ野保育園","Add1":"千葉市緑区","Add2":"おゆみ野2-7","Type":"認可保育所"},"geometry":{"type":"Point","coordinates":[140.174903,35.562314]}},{"type":"Feature","properties":{"P14_001":"千葉県","P14_002":"千葉市緑区","P14_003":"おゆみ野4-30","P14_004":"19","P14_005":"19013","P14_006":"801","P14_007":"かまとり保育園","P14_008":"0","P14_009":"90","P14_010":"数値地図","P14_011":"千葉県＿千葉hoikushoitiran.pdf","Name":"かまとり保育園","Label":"かまとり保育園","Add1":"千葉市緑区","Add2":"おゆみ野4-30","Type":"認可保育所"},"geometry":{"type":"Point","coordinates":[140.179903,35.557759]}},{"type":"Feature","properties":{"P14_001":"千葉県","P14_002":"千葉市緑区","P14_003":"おゆみ野中央2-7-7","P14_004":"19","P14_005":"19013","P14_006":"801","P14_007":"グレース保育園","P14_008":"0","P14_009":"120","P14_010":"数値地図","P14_011":"千葉県＿千葉hoikushoitiran.pdf","Name":"グレース保育園","Label":"グレース保育園","Add1":"千葉市緑区","Add2":"おゆみ野中央2-7-7","Type":"認可保育所"},"geometry":{"type":"Point","coordinates":[140.16465,35.556218]}},{"type":"Feature","properties":{"P14_001":"千葉県","P14_002":"千葉市緑区","P14_003":"おゆみ野南5-29-1","P14_004":"19","P14_005":"19013","P14_006":"801","P14_007":"真生保育園","P14_008":"0","P14_009":"90","P14_010":"数値地図","P14_011":"千葉県＿千葉hoikushoitiran.pdf","Name":"真生保育園","Label":"真生保育園","Add1":"千葉市緑区","Add2":"おゆみ野南5-29-1","Type":"認可保育所"},"geometry":{"type":"Point","coordinates":[140.174512,35.547225]}},{"type":"Feature","properties":{"P14_001":"千葉県","P14_002":"千葉市緑区","P14_003":"あすみが丘4-21-1","P14_004":"19","P14_005":"19013","P14_006":"801","P14_007":"ナーセリー鏡戸","P14_008":"0","P14_009":"120","P14_010":"数値地図","P14_011":"千葉県＿千葉hoikushoitiran.pdf","Name":"ナーセリー鏡戸","Label":"ナーセリー鏡戸","Add1":"千葉市緑区","Add2":"あすみが丘4-21-1","Type":"認可保育所"},"geometry":{"type":"Point","coordinates":[140.264255,35.524208]}},{"type":"Feature","properties":{"P14_001":"千葉県","P14_002":"千葉市緑区","P14_003":"刈田子町308-10","P14_004":"19","P14_005":"19013","P14_006":"801","P14_007":"ふたば保育園","P14_008":"0","P14_009":"120","P14_010":"数値地図","P14_011":"千葉県＿千葉hoikushoitiran.pdf","Name":"ふたば保育園","Label":"ふたば保育園","Add1":"千葉市緑区","Add2":"刈田子町308-10","Type":"認可保育所"},"geometry":{"type":"Point","coordinates":[140.165918,35.546915]}},{"type":"Feature","properties":{"P14_001":"千葉県","P14_002":"千葉市緑区","P14_003":"土気町1626-5","P14_004":"19","P14_005":"19013","P14_006":"801","P14_007":"明徳土気保育園","P14_008":"0","P14_009":"120","P14_010":"数値地図","P14_011":"千葉県＿千葉hoikushoitiran.pdf","Name":"明徳土気保育園","Label":"明徳土気保育園","Add1":"千葉市緑区","Add2":"土気町1626-5","Type":"認可保育所"},"geometry":{"type":"Point","coordinates":[140.269723,35.532728]}},{"type":"Feature","properties":{"P14_001":"千葉県","P14_002":"千葉市緑区","P14_003":"おゆみ野中央7-30","P14_004":"19","P14_005":"19013","P14_006":"801","P14_007":"明和輝保育園","P14_008":"0","P14_009":"90","P14_010":"数値地図","P14_011":"千葉県＿千葉hoikushoitiran.pdf","Name":"明和輝保育園","Label":"明和輝保育園","Add1":"千葉市緑区","Add2":"おゆみ野中央7-30","Type":"認可保育所"},"geometry":{"type":"Point","coordinates":[140.180343,35.548687]}},{"type":"Feature","properties":{"P14_001":"千葉県","P14_002":"千葉市緑区","P14_003":"大椎町1199-2","P14_004":"19","P14_005":"19013","P14_006":"801","P14_007":"わかくさ保育園","P14_008":"0","P14_009":"110","P14_010":"数値地図","P14_011":"千葉県＿千葉hoikushoitiran.pdf","Name":"わかくさ保育園","Label":"わかくさ保育園","Add1":"千葉市緑区","Add2":"大椎町1199-2","Type":"認可保育所"},"geometry":{"type":"Point","coordinates":[140.256589,35.529346]}},{"type":"Feature","properties":{"P14_001":"千葉県","P14_002":"千葉市美浜区","P14_003":"磯辺1-3-1","P14_004":"19","P14_005":"19013","P14_006":"801","P14_007":"磯辺保育所","P14_008":"3","P14_009":"80","P14_010":"数値地図","P14_011":"千葉県＿千葉hoikushoitiran.pdf","Name":"磯辺保育所","Label":"磯辺保育所","Add1":"千葉市美浜区","Add2":"磯辺1-3-1","Type":"認可保育所"},"geometry":{"type":"Point","coordinates":[140.066354,35.62983]}},{"type":"Feature","properties":{"P14_001":"千葉県","P14_002":"千葉市美浜区","P14_003":"稲毛海岸5-6-1","P14_004":"19","P14_005":"19013","P14_006":"801","P14_007":"稲毛海岸保育所","P14_008":"3","P14_009":"140","P14_010":"数値地図","P14_011":"千葉県＿千葉hoikushoitiran.pdf","Name":"稲毛海岸保育所","Label":"稲毛海岸保育所","Add1":"千葉市美浜区","Add2":"稲毛海岸5-6-1","Type":"認可保育所"},"geometry":{"type":"Point","coordinates":[140.075936,35.637274]}},{"type":"Feature","properties":{"P14_001":"千葉県","P14_002":"千葉市美浜区","P14_003":"幸町2-12-9","P14_004":"19","P14_005":"19013","P14_006":"801","P14_007":"幸第一保育所","P14_008":"3","P14_009":"200","P14_010":"数値地図","P14_011":"千葉県＿千葉hoikushoitiran.pdf","Name":"幸第一保育所","Label":"幸第一保育所","Add1":"千葉市美浜区","Add2":"幸町2-12-9","Type":"認可保育所"},"geometry":{"type":"Point","coordinates":[140.093324,35.621444]}},{"type":"Feature","properties":{"P14_001":"千葉県","P14_002":"千葉市美浜区","P14_003":"幸町1-17-6","P14_004":"19","P14_005":"19013","P14_006":"801","P14_007":"幸第三保育所","P14_008":"3","P14_009":"110","P14_010":"数値地図","P14_011":"千葉県＿千葉hoikushoitiran.pdf","Name":"幸第三保育所","Label":"幸第三保育所","Add1":"千葉市美浜区","Add2":"幸町1-17-6","Type":"認可保育所"},"geometry":{"type":"Point","coordinates":[140.099712,35.61525]}},{"type":"Feature","properties":{"P14_001":"千葉県","P14_002":"千葉市美浜区","P14_003":"高洲2-2-21","P14_004":"19","P14_005":"19013","P14_006":"801","P14_007":"高洲第一保育所","P14_008":"3","P14_009":"110","P14_010":"数値地図","P14_011":"千葉県＿千葉hoikushoitiran.pdf","Name":"高洲第一保育所","Label":"高洲第一保育所","Add1":"千葉市美浜区","Add2":"高洲2-2-21","Type":"認可保育所"},"geometry":{"type":"Point","coordinates":[140.078936,35.624609]}},{"type":"Feature","properties":{"P14_001":"千葉県","P14_002":"千葉市美浜区","P14_003":"高洲2-3-19","P14_004":"19","P14_005":"19013","P14_006":"801","P14_007":"高洲第二保育所","P14_008":"3","P14_009":"80","P14_010":"数値地図","P14_011":"千葉県＿千葉hoikushoitiran.pdf","Name":"高洲第二保育所","Label":"高洲第二保育所","Add1":"千葉市美浜区","Add2":"高洲2-3-19","Type":"認可保育所"},"geometry":{"type":"Point","coordinates":[140.077408,35.622137]}},{"type":"Feature","properties":{"P14_001":"千葉県","P14_002":"千葉市美浜区","P14_003":"高洲3-2-14","P14_004":"19","P14_005":"19013","P14_006":"801","P14_007":"高洲第三保育所","P14_008":"3","P14_009":"150","P14_010":"数値地図","P14_011":"千葉県＿千葉hoikushoitiran.pdf","Name":"高洲第三保育所","Label":"高洲第三保育所","Add1":"千葉市美浜区","Add2":"高洲3-2-14","Type":"認可保育所"},"geometry":{"type":"Point","coordinates":[140.075658,35.627192]}},{"type":"Feature","properties":{"P14_001":"千葉県","P14_002":"千葉市美浜区","P14_003":"高浜1-4-3","P14_004":"19","P14_005":"19013","P14_006":"801","P14_007":"高浜第一保育所","P14_008":"3","P14_009":"90","P14_010":"数値地図","P14_011":"千葉県＿千葉hoikushoitiran.pdf","Name":"高浜第一保育所","Label":"高浜第一保育所","Add1":"千葉市美浜区","Add2":"高浜1-4-3","Type":"認可保育所"},"geometry":{"type":"Point","coordinates":[140.074798,35.619415]}},{"type":"Feature","properties":{"P14_001":"千葉県","P14_002":"千葉市美浜区","P14_003":"真砂2-22-13","P14_004":"19","P14_005":"19013","P14_006":"801","P14_007":"真砂第一保育所","P14_008":"3","P14_009":"95","P14_010":"数値地図","P14_011":"千葉県＿千葉hoikushoitiran.pdf","Name":"真砂第一保育所","Label":"真砂第一保育所","Add1":"千葉市美浜区","Add2":"真砂2-22-13","Type":"認可保育所"},"geometry":{"type":"Point","coordinates":[140.068436,35.640857]}},{"type":"Feature","properties":{"P14_001":"千葉県","P14_002":"千葉市美浜区","P14_003":"真砂5-19-1","P14_004":"19","P14_005":"19013","P14_006":"801","P14_007":"真砂第二保育所","P14_008":"3","P14_009":"110","P14_010":"数値地図","P14_011":"千葉県＿千葉hoikushoitiran.pdf","Name":"真砂第二保育所","Label":"真砂第二保育所","Add1":"千葉市美浜区","Add2":"真砂5-19-1","Type":"認可保育所"},"geometry":{"type":"Point","coordinates":[140.064381,35.645495]}},{"type":"Feature","properties":{"P14_001":"千葉県","P14_002":"千葉市美浜区","P14_003":"真砂5-44-1","P14_004":"19","P14_005":"19013","P14_006":"801","P14_007":"真砂第三保育所","P14_008":"3","P14_009":"125","P14_010":"数値地図","P14_011":"千葉県＿千葉hoikushoitiran.pdf","Name":"真砂第三保育所","Label":"真砂第三保育所","Add1":"千葉市美浜区","Add2":"真砂5-44-1","Type":"認可保育所"},"geometry":{"type":"Point","coordinates":[140.059882,35.643634]}},{"type":"Feature","properties":{"P14_001":"千葉県","P14_002":"千葉市美浜区","P14_003":"真砂4-1-10-5F","P14_004":"19","P14_005":"19013","P14_006":"801","P14_007":"ｱｯﾌﾟﾙﾅｰｽﾘｰ検見川浜保育園","P14_008":"4","P14_009":"30","P14_010":"数値地図","P14_011":"千葉県＿千葉hoikushoitiran.pdf","Name":"ｱｯﾌﾟﾙﾅｰｽﾘｰ検見川浜保育園","Label":"ｱｯﾌﾟﾙﾅｰｽﾘｰ検見川浜保育園","Add1":"千葉市美浜区","Add2":"真砂4-1-10-5F","Type":"認可保育所"},"geometry":{"type":"Point","coordinates":[140.061436,35.638639]}},{"type":"Feature","properties":{"P14_001":"千葉県","P14_002":"千葉市美浜区","P14_003":"打瀬1-3-5","P14_004":"19","P14_005":"19013","P14_006":"801","P14_007":"打瀬保育園","P14_008":"0","P14_009":"120","P14_010":"数値地図","P14_011":"千葉県＿千葉hoikushoitiran.pdf","Name":"打瀬保育園","Label":"打瀬保育園","Add1":"千葉市美浜区","Add2":"打瀬1-3-5","Type":"認可保育所"},"geometry":{"type":"Point","coordinates":[140.047994,35.642968]}},{"type":"Feature","properties":{"P14_001":"千葉県","P14_002":"千葉市美浜区","P14_003":"中瀬1-31F","P14_004":"19","P14_005":"19013","P14_006":"801","P14_007":"アスク海浜幕張保育園","P14_008":"4","P14_009":"59","P14_010":"数値地図","P14_011":"千葉県＿千葉hoikushoitiran.pdf","Name":"アスク海浜幕張保育園","Label":"アスク海浜幕張保育園","Add1":"千葉市美浜区","Add2":"中瀬1-31F","Type":"認可保育所"},"geometry":{"type":"Point","coordinates":[140.042081,35.652031]}},{"type":"Feature","properties":{"P14_001":"千葉県","P14_002":"千葉市美浜区","P14_003":"打瀬2-18-2","P14_004":"19","P14_005":"19013","P14_006":"801","P14_007":"茶々まくはり保育園","P14_008":"0","P14_009":"110","P14_010":"数値地図","P14_011":"千葉県＿千葉hoikushoitiran.pdf","Name":"茶々まくはり保育園","Label":"茶々まくはり保育園","Add1":"千葉市美浜区","Add2":"打瀬2-18-2","Type":"認可保育所"},"geometry":{"type":"Point","coordinates":[140.045643,35.638063]}},{"type":"Feature","properties":{"P14_001":"千葉県","P14_002":"千葉市美浜区","P14_003":"真砂3-15-14","P14_004":"19","P14_005":"19013","P14_006":"801","P14_007":"チューリップ保育園","P14_008":"0","P14_009":"120","P14_010":"数値地図","P14_011":"千葉県＿千葉hoikushoitiran.pdf","Name":"チューリップ保育園","Label":"チューリップ保育園","Add1":"千葉市美浜区","Add2":"真砂3-15-14","Type":"認可保育所"},"geometry":{"type":"Point","coordinates":[140.064493,35.638413]}},{"type":"Feature","properties":{"P14_001":"千葉県","P14_002":"千葉市美浜区","P14_003":"高浜4-4-1","P14_004":"19","P14_005":"19013","P14_006":"801","P14_007":"なぎさ保育園","P14_008":"0","P14_009":"90","P14_010":"数値地図","P14_011":"千葉県＿千葉hoikushoitiran.pdf","Name":"なぎさ保育園","Label":"なぎさ保育園","Add1":"千葉市美浜区","Add2":"高浜4-4-1","Type":"認可保育所"},"geometry":{"type":"Point","coordinates":[140.069993,35.622415]}},{"type":"Feature","properties":{"P14_001":"千葉県","P14_002":"千葉市美浜区","P14_003":"幕張西2-7-2","P14_004":"19","P14_005":"19013","P14_006":"801","P14_007":"幕張海浜保育園","P14_008":"0","P14_009":"120","P14_010":"数値地図","P14_011":"千葉県＿千葉hoikushoitiran.pdf","Name":"幕張海浜保育園","Label":"幕張海浜保育園","Add1":"千葉市美浜区","Add2":"幕張西2-7-2","Type":"認可保育所"},"geometry":{"type":"Point","coordinates":[140.037633,35.665687]}},{"type":"Feature","properties":{"P14_001":"千葉県","P14_002":"千葉市美浜区","P14_003":"高洲1-15-2","P14_004":"19","P14_005":"19013","P14_006":"801","P14_007":"まどか保育園","P14_008":"0","P14_009":"90","P14_010":"数値地図","P14_011":"千葉県＿千葉hoikushoitiran.pdf","Name":"まどか保育園","Label":"まどか保育園","Add1":"千葉市美浜区","Add2":"高洲1-15-2","Type":"認可保育所"},"geometry":{"type":"Point","coordinates":[140.077741,35.629997]}},{"type":"Feature","properties":{"P14_001":"千葉県","P14_002":"千葉市美浜区","P14_003":"打瀬3-11-3","P14_004":"19","P14_005":"19013","P14_006":"801","P14_007":"みらい保育園","P14_008":"0","P14_009":"120","P14_010":"数値地図","P14_011":"千葉県＿千葉hoikushoitiran.pdf","Name":"みらい保育園","Label":"みらい保育園","Add1":"千葉市美浜区","Add2":"打瀬3-11-3","Type":"認可保育所"},"geometry":{"type":"Point","coordinates":[140.042076,35.636603]}},{"type":"Feature","properties":{"P14_001":"千葉県","P14_002":"千葉市美浜区","P14_003":"磯辺5-14-5","P14_004":"19","P14_005":"19013","P14_006":"801","P14_007":"もみじ保育園","P14_008":"0","P14_009":"120","P14_010":"数値地図","P14_011":"千葉県＿千葉hoikushoitiran.pdf","Name":"もみじ保育園","Label":"もみじ保育園","Add1":"千葉市美浜区","Add2":"磯辺5-14-5","Type":"認可保育所"},"geometry":{"type":"Point","coordinates":[140.059688,35.633885]}},{"type":"Feature","properties":{"P14_001":"千葉県","P14_002":"千葉市美浜区","P14_003":"高洲4-5-9","P14_004":"19","P14_005":"19013","P14_006":"801","P14_007":"若梅保育園","P14_008":"0","P14_009":"135","P14_010":"数値地図","P14_011":"千葉県＿千葉hoikushoitiran.pdf","Name":"若梅保育園","Label":"若梅保育園","Add1":"千葉市美浜区","Add2":"高洲4-5-9","Type":"認可保育所"},"geometry":{"type":"Point","coordinates":[140.071964,35.631302]}},{"type":"Feature","properties":{"P14_001":"千葉県","P14_002":"千葉市中央区","P14_003":"今井1-17-41F","P14_004":"19","P14_005":"19008","P14_006":"803","P14_007":"あい・あい保育園今井園","P14_008":"4","P14_009":"18","P14_010":"数値地図","P14_011":"千葉県＿千葉ninkagai10.pdf,千葉県＿千葉room10.pdf","Name":"あい・あい保育園今井園","Label":"あい・あい保育園今井園","Add1":"千葉市中央区","Add2":"今井1-17-41F","Type":"認可外"},"geometry":{"type":"Point","coordinates":[140.12789,35.582087]}},{"type":"Feature","properties":{"P14_001":"千葉県","P14_002":"千葉市中央区","P14_003":"千葉寺町1210-7","P14_004":"19","P14_005":"19008","P14_006":"803","P14_007":"青葉の森保育園","P14_008":"4","P14_009":"25","P14_010":"数値地図","P14_011":"千葉県＿千葉ninkagai10.pdf,千葉県＿千葉room10.pdf","Name":"青葉の森保育園","Label":"青葉の森保育園","Add1":"千葉市中央区","Add2":"千葉寺町1210-7","Type":"認可外"},"geometry":{"type":"Point","coordinates":[140.135108,35.593487]}},{"type":"Feature","properties":{"P14_001":"千葉県","P14_002":"千葉市中央区","P14_003":"南町2-6-10初芝ﾋﾞﾙ101","P14_004":"19","P14_005":"19008","P14_006":"803","P14_007":"かるがも保育園蘇我園","P14_008":"4","P14_009":"45","P14_010":"数値地図","P14_011":"千葉県＿千葉ninkagai10.pdf,千葉県＿千葉room10.pdf","Name":"かるがも保育園蘇我園","Label":"かるがも保育園蘇我園","Add1":"千葉市中央区","Add2":"南町2-6-10初芝ﾋﾞﾙ101","Type":"認可外"},"geometry":{"type":"Point","coordinates":[140.132847,35.582798]}},{"type":"Feature","properties":{"P14_001":"千葉県","P14_002":"千葉市中央区","P14_003":"中央3-13-1富士屋ﾋﾞﾙ2F","P14_004":"19","P14_005":"19008","P14_006":"803","P14_007":"キッズ・ガーデン","P14_008":"4","P14_009":"30","P14_010":"数値地図","P14_011":"千葉県＿千葉ninkagai10.pdf,千葉県＿千葉room10.pdf","Name":"キッズ・ガーデン","Label":"キッズ・ガーデン","Add1":"千葉市中央区","Add2":"中央3-13-1富士屋ﾋﾞﾙ2F","Type":"認可外"},"geometry":{"type":"Point","coordinates":[140.123202,35.608354]}},{"type":"Feature","properties":{"P14_001":"千葉県","P14_002":"千葉市中央区","P14_003":"院内2-17-25","P14_004":"19","P14_005":"19008","P14_006":"803","P14_007":"キッズルームチャコ千葉店","P14_008":"4","P14_009":"21","P14_010":"数値地図","P14_011":"千葉県＿千葉ninkagai10.pdf,千葉県＿千葉room10.pdf","Name":"キッズルームチャコ千葉店","Label":"キッズルームチャコ千葉店","Add1":"千葉市中央区","Add2":"院内2-17-25","Type":"認可外"},"geometry":{"type":"Point","coordinates":[140.126249,35.611821]}},{"type":"Feature","properties":{"P14_001":"千葉県","P14_002":"千葉市中央区","P14_003":"新千葉2-14-6","P14_004":"19","P14_005":"19008","P14_006":"803","P14_007":"キッズルーム晴れた空","P14_008":"0","P14_009":"20","P14_010":"数値地図","P14_011":"千葉県＿千葉ninkagai10.pdf,千葉県＿千葉room10.pdf","Name":"キッズルーム晴れた空","Label":"キッズルーム晴れた空","Add1":"千葉市中央区","Add2":"新千葉2-14-6","Type":"認可外"},"geometry":{"type":"Point","coordinates":[140.110044,35.612315]}},{"type":"Feature","properties":{"P14_001":"千葉県","P14_002":"千葉市中央区","P14_003":"本町1-5-3","P14_004":"19","P14_005":"19008","P14_006":"803","P14_007":"こどもハウスいるか","P14_008":"0","P14_009":"31","P14_010":"数値地図","P14_011":"千葉県＿千葉ninkagai10.pdf,千葉県＿千葉room10.pdf","Name":"こどもハウスいるか","Label":"こどもハウスいるか","Add1":"千葉市中央区","Add2":"本町1-5-3","Type":"認可外"},"geometry":{"type":"Point","coordinates":[140.125303,35.610611]}},{"type":"Feature","properties":{"P14_001":"千葉県","P14_002":"千葉市中央区","P14_003":"今井2-1-8ｶﾝﾕｳSOGA1F","P14_004":"19","P14_005":"19008","P14_006":"803","P14_007":"そがチャイルドハウス","P14_008":"9","P14_009":"40","P14_010":"数値地図","P14_011":"千葉県＿千葉ninkagai10.pdf,千葉県＿千葉room10.pdf","Name":"そがチャイルドハウス","Label":"そがチャイルドハウス","Add1":"千葉市中央区","Add2":"今井2-1-8ｶﾝﾕｳSOGA1F","Type":"認可外"},"geometry":{"type":"Point","coordinates":[140.127372,35.580722]}},{"type":"Feature","properties":{"P14_001":"千葉県","P14_002":"千葉市中央区","P14_003":"今井2-11-12MSﾏﾝｼｮﾝ蘇我1F","P14_004":"19","P14_005":"19008","P14_006":"803","P14_007":"ちびっこランド蘇我駅前園","P14_008":"4","P14_009":"22","P14_010":"数値地図","P14_011":"千葉県＿千葉ninkagai10.pdf,千葉県＿千葉room10.pdf","Name":"ちびっこランド蘇我駅前園","Label":"ちびっこランド蘇我駅前園","Add1":"千葉市中央区","Add2":"今井2-11-12MSﾏﾝｼｮﾝ蘇我1F","Type":"認可外"},"geometry":{"type":"Point","coordinates":[140.129829,35.579749]}},{"type":"Feature","properties":{"P14_001":"千葉県","P14_002":"千葉市中央区","P14_003":"新田町38-1ｺｰﾄｸﾞﾚｲｽ1F","P14_004":"19","P14_005":"19008","P14_006":"803","P14_007":"ちびっこランド千葉市役所駅前園","P14_008":"4","P14_009":"26","P14_010":"数値地図","P14_011":"千葉県＿千葉ninkagai10.pdf,千葉県＿千葉room10.pdf","Name":"ちびっこランド千葉市役所駅前園","Label":"ちびっこランド千葉市役所駅前園","Add1":"千葉市中央区","Add2":"新田町38-1ｺｰﾄｸﾞﾚｲｽ1F","Type":"認可外"},"geometry":{"type":"Point","coordinates":[140.109916,35.607346]}},{"type":"Feature","properties":{"P14_001":"千葉県","P14_002":"千葉市中央区","P14_003":"長洲1-24-12今井ﾋﾞﾙ1F","P14_004":"19","P14_005":"19008","P14_006":"803","P14_007":"はっぴぃルーム本千葉駅前園","P14_008":"4","P14_009":"28","P14_010":"数値地図","P14_011":"千葉県＿千葉ninkagai10.pdf,千葉県＿千葉room10.pdf","Name":"はっぴぃルーム本千葉駅前園","Label":"はっぴぃルーム本千葉駅前園","Add1":"千葉市中央区","Add2":"長洲1-24-12今井ﾋﾞﾙ1F","Type":"認可外"},"geometry":{"type":"Point","coordinates":[140.121521,35.602108]}},{"type":"Feature","properties":{"P14_001":"千葉県","P14_002":"千葉市中央区","P14_003":"都町2-13-1ﾊﾟｰｸｱﾍﾞﾆｭｰ103","P14_004":"19","P14_005":"19008","P14_006":"803","P14_007":"ちびっこランドみやこ町園","P14_008":"4","P14_009":"40","P14_010":"数値地図","P14_011":"千葉県＿千葉ninkagai10.pdf,千葉県＿千葉room10.pdf","Name":"ちびっこランドみやこ町園","Label":"ちびっこランドみやこ町園","Add1":"千葉市中央区","Add2":"都町2-13-1ﾊﾟｰｸｱﾍﾞﾆｭｰ103","Type":"認可外"},"geometry":{"type":"Point","coordinates":[140.139102,35.610925]}},{"type":"Feature","properties":{"P14_001":"千葉県","P14_002":"千葉市中央区","P14_003":"千葉寺町886-1ﾀﾞｲｱﾊﾟﾚｽﾋﾙﾄｯﾌﾟ･ｴﾌ2F","P14_004":"19","P14_005":"19008","P14_006":"803","P14_007":"チャイルドタイム千葉寺エンゼルホーム","P14_008":"4","P14_009":"45","P14_010":"数値地図","P14_011":"千葉県＿千葉ninkagai10.pdf,千葉県＿千葉room10.pdf","Name":"チャイルドタイム千葉寺エンゼルホーム","Label":"チャイルドタイム千葉寺エンゼルホーム","Add1":"千葉市中央区","Add2":"千葉寺町886-1ﾀﾞｲｱﾊﾟﾚｽﾋﾙﾄｯﾌﾟ･ｴﾌ2F","Type":"認可外"},"geometry":{"type":"Point","coordinates":[140.134801,35.588981]}},{"type":"Feature","properties":{"P14_001":"千葉県","P14_002":"千葉市中央区","P14_003":"祐光2-11-12SKﾏﾝｼｮﾝ213号","P14_004":"19","P14_005":"19008","P14_006":"803","P14_007":"中央保育所","P14_008":"4","P14_009":"130","P14_010":"数値地図","P14_011":"千葉県＿千葉ninkagai10.pdf,千葉県＿千葉room10.pdf","Name":"中央保育所","Label":"中央保育所","Add1":"千葉市中央区","Add2":"祐光2-11-12SKﾏﾝｼｮﾝ213号","Type":"認可外"},"geometry":{"type":"Point","coordinates":[140.12642,35.617701]}},{"type":"Feature","properties":{"P14_001":"千葉県","P14_002":"千葉市中央区","P14_003":"本千葉町1-1日土地千葉中央ﾋﾞﾙ2F","P14_004":"19","P14_005":"19008","P14_006":"803","P14_007":"ニチイアイリスキッズ千葉中央駅前保育園","P14_008":"4","P14_009":"35","P14_010":"数値地図","P14_011":"千葉県＿千葉ninkagai10.pdf,千葉県＿千葉room10.pdf","Name":"ニチイアイリスキッズ千葉中央駅前保育園","Label":"ニチイアイリスキッズ千葉中央駅前保育園","Add1":"千葉市中央区","Add2":"本千葉町1-1日土地千葉中央ﾋﾞﾙ2F","Type":"認可外"},"geometry":{"type":"Point","coordinates":[140.118805,35.60801]}},{"type":"Feature","properties":{"P14_001":"千葉県","P14_002":"千葉市中央区","P14_003":"新町4-1","P14_004":"19","P14_005":"19008","P14_006":"803","P14_007":"はなかごキッズルーム","P14_008":"4","P14_009":"15","P14_010":"数値地図","P14_011":"千葉県＿千葉ninkagai10.pdf,千葉県＿千葉room10.pdf","Name":"はなかごキッズルーム","Label":"はなかごキッズルーム","Add1":"千葉市中央区","Add2":"新町4-1","Type":"認可外"},"geometry":{"type":"Point","coordinates":[140.114052,35.609668]}},{"type":"Feature","properties":{"P14_001":"千葉県","P14_002":"千葉市中央区","P14_003":"新田町7-16ﾌｫﾝﾄﾋﾞﾙ1F","P14_004":"19","P14_005":"19008","P14_006":"803","P14_007":"ピラミッドメソッドキッズガーデン千葉","P14_008":"0","P14_009":"39","P14_010":"数値地図","P14_011":"千葉県＿千葉ninkagai10.pdf,千葉県＿千葉room10.pdf","Name":"ピラミッドメソッドキッズガーデン千葉","Label":"ピラミッドメソッドキッズガーデン千葉","Add1":"千葉市中央区","Add2":"新田町7-16ﾌｫﾝﾄﾋﾞﾙ1F","Type":"認可外"},"geometry":{"type":"Point","coordinates":[140.113608,35.608137]}},{"type":"Feature","properties":{"P14_001":"千葉県","P14_002":"千葉市中央区","P14_003":"長洲1-33-13共栄ﾋﾞﾙ","P14_004":"19","P14_005":"19008","P14_006":"803","P14_007":"ベビールームこどものへや","P14_008":"4","P14_009":"23","P14_010":"数値地図","P14_011":"千葉県＿千葉ninkagai10.pdf,千葉県＿千葉room10.pdf","Name":"ベビールームこどものへや","Label":"ベビールームこどものへや","Add1":"千葉市中央区","Add2":"長洲1-33-13共栄ﾋﾞﾙ","Type":"認可外"},"geometry":{"type":"Point","coordinates":[140.119319,35.602173]}},{"type":"Feature","properties":{"P14_001":"千葉県","P14_002":"千葉市中央区","P14_003":"問屋町1-50千葉ﾎﾟｰﾄﾀｳﾝ1F","P14_004":"19","P14_005":"19008","P14_006":"803","P14_007":"リトルガーデン千葉ポートタウン","P14_008":"0","P14_009":"47","P14_010":"数値地図","P14_011":"千葉県＿千葉ninkagai10.pdf,千葉県＿千葉room10.pdf","Name":"リトルガーデン千葉ポートタウン","Label":"リトルガーデン千葉ポートタウン","Add1":"千葉市中央区","Add2":"問屋町1-50千葉ﾎﾟｰﾄﾀｳﾝ1F","Type":"認可外"},"geometry":{"type":"Point","coordinates":[140.11011,35.602932]}},{"type":"Feature","properties":{"P14_001":"千葉県","P14_002":"千葉市中央区","P14_003":"弁天1-30-1千葉ｺﾞｰﾙﾃﾞﾝﾏﾝｼｮﾝ1F","P14_004":"19","P14_005":"19008","P14_006":"803","P14_007":"わんぱくキッズ","P14_008":"4","P14_009":"27","P14_010":"数値地図","P14_011":"千葉県＿千葉ninkagai10.pdf,千葉県＿千葉room10.pdf","Name":"わんぱくキッズ","Label":"わんぱくキッズ","Add1":"千葉市中央区","Add2":"弁天1-30-1千葉ｺﾞｰﾙﾃﾞﾝﾏﾝｼｮﾝ1F","Type":"認可外"},"geometry":{"type":"Point","coordinates":[140.113816,35.616389]}},{"type":"Feature","properties":{"P14_001":"千葉県","P14_002":"千葉市花見川区","P14_003":"幕張町5-187-1幕張ｾﾝﾀｰﾋﾞﾙ1F","P14_004":"19","P14_005":"19008","P14_006":"803","P14_007":"あい・あい保育園","P14_008":"4","P14_009":"48","P14_010":"数値地図","P14_011":"千葉県＿千葉ninkagai10.pdf,千葉県＿千葉room10.pdf","Name":"あい・あい保育園","Label":"あい・あい保育園","Add1":"千葉市花見川区","Add2":"幕張町5-187-1幕張ｾﾝﾀｰﾋﾞﾙ1F","Type":"認可外"},"geometry":{"type":"Point","coordinates":[140.055781,35.657672]}},{"type":"Feature","properties":{"P14_001":"千葉県","P14_002":"千葉市花見川区","P14_003":"幕張本郷2-4-8","P14_004":"19","P14_005":"19008","P14_006":"803","P14_007":"エバーキッズ幕張保育園","P14_008":"0","P14_009":"24","P14_010":"数値地図","P14_011":"千葉県＿千葉ninkagai10.pdf,千葉県＿千葉room10.pdf","Name":"エバーキッズ幕張保育園","Label":"エバーキッズ幕張保育園","Add1":"千葉市花見川区","Add2":"幕張本郷2-4-8","Type":"認可外"},"geometry":{"type":"Point","coordinates":[140.044205,35.670615]}},{"type":"Feature","properties":{"P14_001":"千葉県","P14_002":"千葉市花見川区","P14_003":"千種町112-1","P14_004":"19","P14_005":"19008","P14_006":"803","P14_007":"きっずかりん","P14_008":"4","P14_009":"10","P14_010":"数値地図","P14_011":"千葉県＿千葉ninkagai10.pdf,千葉県＿千葉room10.pdf","Name":"きっずかりん","Label":"きっずかりん","Add1":"千葉市花見川区","Add2":"千種町112-1","Type":"認可外"},"geometry":{"type":"Point","coordinates":[140.107925,35.677287]}},{"type":"Feature","properties":{"P14_001":"千葉県","P14_002":"千葉市花見川区","P14_003":"幕張本郷2-6-4","P14_004":"19","P14_005":"19008","P14_006":"803","P14_007":"キッズスペース・ウィーピー幕張本郷","P14_008":"4","P14_009":"45","P14_010":"数値地図","P14_011":"千葉県＿千葉ninkagai10.pdf,千葉県＿千葉room10.pdf","Name":"キッズスペース・ウィーピー幕張本郷","Label":"キッズスペース・ウィーピー幕張本郷","Add1":"千葉市花見川区","Add2":"幕張本郷2-6-4","Type":"認可外"},"geometry":{"type":"Point","coordinates":[140.042918,35.670258]}},{"type":"Feature","properties":{"P14_001":"千葉県","P14_002":"千葉市花見川区","P14_003":"作新台1-6-11","P14_004":"19","P14_005":"19008","P14_006":"803","P14_007":"キッズルームぴょんぴょん","P14_008":"4","P14_009":"20","P14_010":"数値地図","P14_011":"千葉県＿千葉ninkagai10.pdf,千葉県＿千葉room10.pdf","Name":"キッズルームぴょんぴょん","Label":"キッズルームぴょんぴょん","Add1":"千葉市花見川区","Add2":"作新台1-6-11","Type":"認可外"},"geometry":{"type":"Point","coordinates":[140.091639,35.690505]}},{"type":"Feature","properties":{"P14_001":"千葉県","P14_002":"千葉市花見川区","P14_003":"幕張本郷6-15-2","P14_004":"19","P14_005":"19008","P14_006":"803","P14_007":"ＫＩＤＤＹＫＩＮＧＤＯＭ","P14_008":"4","P14_009":"18","P14_010":"数値地図","P14_011":"千葉県＿千葉ninkagai10.pdf,千葉県＿千葉room10.pdf","Name":"ＫＩＤＤＹＫＩＮＧＤＯＭ","Label":"ＫＩＤＤＹＫＩＮＧＤＯＭ","Add1":"千葉市花見川区","Add2":"幕張本郷6-15-2","Type":"認可外"},"geometry":{"type":"Point","coordinates":[140.042402,35.675529]}},{"type":"Feature","properties":{"P14_001":"千葉県","P14_002":"千葉市花見川区","P14_003":"検見川町3-302-25","P14_004":"19","P14_005":"19008","P14_006":"803","P14_007":"キャンディ検見川園","P14_008":"4","P14_009":"21","P14_010":"数値地図","P14_011":"千葉県＿千葉ninkagai10.pdf,千葉県＿千葉room10.pdf","Name":"キャンディ検見川園","Label":"キャンディ検見川園","Add1":"千葉市花見川区","Add2":"検見川町3-302-25","Type":"認可外"},"geometry":{"type":"Point","coordinates":[140.072396,35.650393]}},{"type":"Feature","properties":{"P14_001":"千葉県","P14_002":"千葉市花見川区","P14_003":"幕張町6-291-2ﾆｭｰｳｨﾝｸﾞ幕張2F","P14_004":"19","P14_005":"19008","P14_006":"803","P14_007":"ちびっこランド幕張駅前園","P14_008":"4","P14_009":"28","P14_010":"数値地図","P14_011":"千葉県＿千葉ninkagai10.pdf,千葉県＿千葉room10.pdf","Name":"ちびっこランド幕張駅前園","Label":"ちびっこランド幕張駅前園","Add1":"千葉市花見川区","Add2":"幕張町6-291-2ﾆｭｰｳｨﾝｸﾞ幕張2F","Type":"認可外"},"geometry":{"type":"Point","coordinates":[140.060179,35.658072]}},{"type":"Feature","properties":{"P14_001":"千葉県","P14_002":"千葉市花見川区","P14_003":"花島町430-35","P14_004":"19","P14_005":"19008","P14_006":"803","P14_007":"花見川さくら学園","P14_008":"4","P14_009":"78","P14_010":"数値地図","P14_011":"千葉県＿千葉ninkagai10.pdf,千葉県＿千葉room10.pdf","Name":"花見川さくら学園","Label":"花見川さくら学園","Add1":"千葉市花見川区","Add2":"花島町430-35","Type":"認可外"},"geometry":{"type":"Point","coordinates":[140.10181,35.687652]}},{"type":"Feature","properties":{"P14_001":"千葉県","P14_002":"千葉市花見川区","P14_003":"幕張本郷5-17-4","P14_004":"19","P14_005":"19008","P14_006":"803","P14_007":"幕張台保育園","P14_008":"4","P14_009":"50","P14_010":"数値地図","P14_011":"千葉県＿千葉ninkagai10.pdf,千葉県＿千葉room10.pdf","Name":"幕張台保育園","Label":"幕張台保育園","Add1":"千葉市花見川区","Add2":"幕張本郷5-17-4","Type":"認可外"},"geometry":{"type":"Point","coordinates":[140.046794,35.67138]}},{"type":"Feature","properties":{"P14_001":"千葉県","P14_002":"千葉市花見川区","P14_003":"幕張本郷1-3-5大岩ﾋﾞﾙ203","P14_004":"19","P14_005":"19008","P14_006":"803","P14_007":"幕張本郷駅前保育園","P14_008":"4","P14_009":"30","P14_010":"数値地図","P14_011":"千葉県＿千葉ninkagai10.pdf,千葉県＿千葉room10.pdf","Name":"幕張本郷駅前保育園","Label":"幕張本郷駅前保育園","Add1":"千葉市花見川区","Add2":"幕張本郷1-3-5大岩ﾋﾞﾙ203","Type":"認可外"},"geometry":{"type":"Point","coordinates":[140.040708,35.672812]}},{"type":"Feature","properties":{"P14_001":"千葉県","P14_002":"千葉市花見川区","P14_003":"幕張本郷1-20-9","P14_004":"19","P14_005":"19008","P14_006":"803","P14_007":"街かど保育園幕張本郷","P14_008":"4","P14_009":"56","P14_010":"数値地図","P14_011":"千葉県＿千葉ninkagai10.pdf,千葉県＿千葉room10.pdf","Name":"街かど保育園幕張本郷","Label":"街かど保育園幕張本郷","Add1":"千葉市花見川区","Add2":"幕張本郷1-20-9","Type":"認可外"},"geometry":{"type":"Point","coordinates":[140.037973,35.671795]}},{"type":"Feature","properties":{"P14_001":"千葉県","P14_002":"千葉市花見川区","P14_003":"幕張町5-417-222幕張ｸﾞﾘｰﾝﾊｲﾂ117","P14_004":"19","P14_005":"19008","P14_006":"803","P14_007":"マミー＆ミー幕張","P14_008":"4","P14_009":"30","P14_010":"数値地図","P14_011":"千葉県＿千葉ninkagai10.pdf,千葉県＿千葉room10.pdf","Name":"マミー＆ミー幕張","Label":"マミー＆ミー幕張","Add1":"千葉市花見川区","Add2":"幕張町5-417-222幕張ｸﾞﾘｰﾝﾊｲﾂ117","Type":"認可外"},"geometry":{"type":"Point","coordinates":[140.053344,35.657248]}},{"type":"Feature","properties":{"P14_001":"千葉県","P14_002":"千葉市稲毛区","P14_003":"稲毛東4-2-21","P14_004":"19","P14_005":"19008","P14_006":"803","P14_007":"アストロキャンプ","P14_008":"4","P14_009":"27","P14_010":"数値地図","P14_011":"千葉県＿千葉ninkagai10.pdf,千葉県＿千葉room10.pdf","Name":"アストロキャンプ","Label":"アストロキャンプ","Add1":"千葉市稲毛区","Add2":"稲毛東4-2-21","Type":"認可外"},"geometry":{"type":"Point","coordinates":[140.089657,35.638034]}},{"type":"Feature","properties":{"P14_001":"千葉県","P14_002":"千葉市稲毛区","P14_003":"小仲台2-8-25第8横土ﾋﾞﾙ1F","P14_004":"19","P14_005":"19008","P14_006":"803","P14_007":"キッズルームＫＯＲＵ","P14_008":"4","P14_009":"35","P14_010":"数値地図","P14_011":"千葉県＿千葉ninkagai10.pdf,千葉県＿千葉room10.pdf","Name":"キッズルームＫＯＲＵ","Label":"キッズルームＫＯＲＵ","Add1":"千葉市稲毛区","Add2":"小仲台2-8-25第8横土ﾋﾞﾙ1F","Type":"認可外"},"geometry":{"type":"Point","coordinates":[140.09521,35.637593]}},{"type":"Feature","properties":{"P14_001":"千葉県","P14_002":"千葉市稲毛区","P14_003":"小仲台6-2-10","P14_004":"19","P14_005":"19008","P14_006":"803","P14_007":"キッズルームチャコ稲毛店","P14_008":"4","P14_009":"26","P14_010":"数値地図","P14_011":"千葉県＿千葉ninkagai10.pdf,千葉県＿千葉room10.pdf","Name":"キッズルームチャコ稲毛店","Label":"キッズルームチャコ稲毛店","Add1":"千葉市稲毛区","Add2":"小仲台6-2-10","Type":"認可外"},"geometry":{"type":"Point","coordinates":[140.092561,35.638425]}},{"type":"Feature","properties":{"P14_001":"千葉県","P14_002":"千葉市稲毛区","P14_003":"稲毛東5-1-4斉藤ﾋﾞﾙ1F","P14_004":"19","P14_005":"19008","P14_006":"803","P14_007":"ちびっこランド稲毛愛教園","P14_008":"4","P14_009":"17","P14_010":"数値地図","P14_011":"千葉県＿千葉ninkagai10.pdf,千葉県＿千葉room10.pdf","Name":"ちびっこランド稲毛愛教園","Label":"ちびっこランド稲毛愛教園","Add1":"千葉市稲毛区","Add2":"稲毛東5-1-4斉藤ﾋﾞﾙ1F","Type":"認可外"},"geometry":{"type":"Point","coordinates":[140.085623,35.638627]}},{"type":"Feature","properties":{"P14_001":"千葉県","P14_002":"千葉市若葉区","P14_003":"都賀5-20-4","P14_004":"19","P14_005":"19008","P14_006":"803","P14_007":"かるがも保育園都賀園","P14_008":"4","P14_009":"44","P14_010":"数値地図","P14_011":"千葉県＿千葉ninkagai10.pdf,千葉県＿千葉room10.pdf","Name":"かるがも保育園都賀園","Label":"かるがも保育園都賀園","Add1":"千葉市若葉区","Add2":"都賀5-20-4","Type":"認可外"},"geometry":{"type":"Point","coordinates":[140.153603,35.637459]}},{"type":"Feature","properties":{"P14_001":"千葉県","P14_002":"千葉市若葉区","P14_003":"都賀3-17-5戸村第2ﾊｲﾂ101","P14_004":"19","P14_005":"19008","P14_006":"803","P14_007":"キッズ倶楽部","P14_008":"4","P14_009":"23","P14_010":"数値地図","P14_011":"千葉県＿千葉ninkagai10.pdf,千葉県＿千葉room10.pdf","Name":"キッズ倶楽部","Label":"キッズ倶楽部","Add1":"千葉市若葉区","Add2":"都賀3-17-5戸村第2ﾊｲﾂ101","Type":"認可外"},"geometry":{"type":"Point","coordinates":[140.149648,35.634262]}},{"type":"Feature","properties":{"P14_001":"千葉県","P14_002":"千葉市若葉区","P14_003":"小倉台3-1-2住栄ﾋﾞﾙ2C","P14_004":"19","P14_005":"19008","P14_006":"803","P14_007":"たくみん保育園","P14_008":"0","P14_009":"58","P14_010":"数値地図","P14_011":"千葉県＿千葉ninkagai10.pdf,千葉県＿千葉room10.pdf","Name":"たくみん保育園","Label":"たくみん保育園","Add1":"千葉市若葉区","Add2":"小倉台3-1-2住栄ﾋﾞﾙ2C","Type":"認可外"},"geometry":{"type":"Point","coordinates":[140.172103,35.627555]}},{"type":"Feature","properties":{"P14_001":"千葉県","P14_002":"千葉市若葉区","P14_003":"桜木北1-15-1","P14_004":"19","P14_005":"19008","P14_006":"803","P14_007":"ひまわり保育園","P14_008":"4","P14_009":"22","P14_010":"数値地図","P14_011":"千葉県＿千葉ninkagai10.pdf,千葉県＿千葉room10.pdf","Name":"ひまわり保育園","Label":"ひまわり保育園","Add1":"千葉市若葉区","Add2":"桜木北1-15-1","Type":"認可外"},"geometry":{"type":"Point","coordinates":[140.163491,35.629273]}},{"type":"Feature","properties":{"P14_001":"千葉県","P14_002":"千葉市若葉区","P14_003":"千城台東3-23-3","P14_004":"19","P14_005":"19008","P14_006":"803","P14_007":"ベビー＆キッズルームおあふ","P14_008":"4","P14_009":"20","P14_010":"数値地図","P14_011":"千葉県＿千葉ninkagai10.pdf,千葉県＿千葉room10.pdf","Name":"ベビー＆キッズルームおあふ","Label":"ベビー＆キッズルームおあふ","Add1":"千葉市若葉区","Add2":"千城台東3-23-3","Type":"認可外"},"geometry":{"type":"Point","coordinates":[140.197933,35.618785]}},{"type":"Feature","properties":{"P14_001":"千葉県","P14_002":"千葉市若葉区","P14_003":"西都賀3-20-3ｼﾊﾞﾀﾊｲﾂ都賀1F","P14_004":"19","P14_005":"19008","P14_006":"803","P14_007":"マミー＆ミー西都賀","P14_008":"4","P14_009":"36","P14_010":"数値地図","P14_011":"千葉県＿千葉ninkagai10.pdf,千葉県＿千葉room10.pdf","Name":"マミー＆ミー西都賀","Label":"マミー＆ミー西都賀","Add1":"千葉市若葉区","Add2":"西都賀3-20-3ｼﾊﾞﾀﾊｲﾂ都賀1F","Type":"認可外"},"geometry":{"type":"Point","coordinates":[140.150493,35.637658]}},{"type":"Feature","properties":{"P14_001":"千葉県","P14_002":"千葉市若葉区","P14_003":"桜木北2-10-6","P14_004":"19","P14_005":"19008","P14_006":"803","P14_007":"みつばち保育園","P14_008":"4","P14_009":"26","P14_010":"数値地図","P14_011":"千葉県＿千葉ninkagai10.pdf,千葉県＿千葉room10.pdf","Name":"みつばち保育園","Label":"みつばち保育園","Add1":"千葉市若葉区","Add2":"桜木北2-10-6","Type":"認可外"},"geometry":{"type":"Point","coordinates":[140.155967,35.636415]}},{"type":"Feature","properties":{"P14_001":"千葉県","P14_002":"千葉市若葉区","P14_003":"都賀3-12-3ﾌﾟﾗﾄｰ都賀102","P14_004":"19","P14_005":"19008","P14_006":"803","P14_007":"ミルキーホーム都賀園","P14_008":"4","P14_009":"43","P14_010":"数値地図","P14_011":"千葉県＿千葉ninkagai10.pdf,千葉県＿千葉room10.pdf","Name":"ミルキーホーム都賀園","Label":"ミルキーホーム都賀園","Add1":"千葉市若葉区","Add2":"都賀3-12-3ﾌﾟﾗﾄｰ都賀102","Type":"認可外"},"geometry":{"type":"Point","coordinates":[140.150705,35.634865]}},{"type":"Feature","properties":{"P14_001":"千葉県","P14_002":"千葉市若葉区","P14_003":"都賀2-12-11技工ﾋﾞﾙ1F","P14_004":"19","P14_005":"19008","P14_006":"803","P14_007":"やまどり保育園","P14_008":"4","P14_009":"46","P14_010":"数値地図","P14_011":"千葉県＿千葉ninkagai10.pdf,千葉県＿千葉room10.pdf","Name":"やまどり保育園","Label":"やまどり保育園","Add1":"千葉市若葉区","Add2":"都賀2-12-11技工ﾋﾞﾙ1F","Type":"認可外"},"geometry":{"type":"Point","coordinates":[140.148926,35.633777]}},{"type":"Feature","properties":{"P14_001":"千葉県","P14_002":"千葉市若葉区","P14_003":"みつわ台5-11-5","P14_004":"19","P14_005":"19008","P14_006":"803","P14_007":"リトルベアーみつわ台ルーム","P14_008":"4","P14_009":"40","P14_010":"数値地図","P14_011":"千葉県＿千葉ninkagai10.pdf,千葉県＿千葉room10.pdf","Name":"リトルベアーみつわ台ルーム","Label":"リトルベアーみつわ台ルーム","Add1":"千葉市若葉区","Add2":"みつわ台5-11-5","Type":"認可外"},"geometry":{"type":"Point","coordinates":[140.134027,35.648177]}},{"type":"Feature","properties":{"P14_001":"千葉県","P14_002":"千葉市緑区","P14_003":"あすみが丘東4-9-2","P14_004":"19","P14_005":"19008","P14_006":"803","P14_007":"あすみ東保育園","P14_008":"4","P14_009":"71","P14_010":"数値地図","P14_011":"千葉県＿千葉ninkagai10.pdf,千葉県＿千葉room10.pdf","Name":"あすみ東保育園","Label":"あすみ東保育園","Add1":"千葉市緑区","Add2":"あすみが丘東4-9-2","Type":"認可外"},"geometry":{"type":"Point","coordinates":[140.275745,35.522791]}},{"type":"Feature","properties":{"P14_001":"千葉県","P14_002":"千葉市緑区","P14_003":"おゆみ野4-23-4","P14_004":"19","P14_005":"19008","P14_006":"803","P14_007":"ウッドランド","P14_008":"4","P14_009":"37","P14_010":"数値地図","P14_011":"千葉県＿千葉ninkagai10.pdf,千葉県＿千葉room10.pdf","Name":"ウッドランド","Label":"ウッドランド","Add1":"千葉市緑区","Add2":"おゆみ野4-23-4","Type":"認可外"},"geometry":{"type":"Point","coordinates":[140.176846,35.55742]}},{"type":"Feature","properties":{"P14_001":"千葉県","P14_002":"千葉市緑区","P14_003":"おゆみ野3-10-7","P14_004":"19","P14_005":"19008","P14_006":"803","P14_007":"かるがも保育園鎌取駅前園","P14_008":"4","P14_009":"88","P14_010":"数値地図","P14_011":"千葉県＿千葉ninkagai10.pdf,千葉県＿千葉room10.pdf","Name":"かるがも保育園鎌取駅前園","Label":"かるがも保育園鎌取駅前園","Add1":"千葉市緑区","Add2":"おゆみ野3-10-7","Type":"認可外"},"geometry":{"type":"Point","coordinates":[140.178289,35.559668]}},{"type":"Feature","properties":{"P14_001":"千葉県","P14_002":"千葉市緑区","P14_003":"おゆみ野4-23-2","P14_004":"19","P14_005":"19008","P14_006":"803","P14_007":"かるがも保育園鎌取小がも園","P14_008":"4","P14_009":"70","P14_010":"数値地図","P14_011":"千葉県＿千葉ninkagai10.pdf,千葉県＿千葉room10.pdf","Name":"かるがも保育園鎌取小がも園","Label":"かるがも保育園鎌取小がも園","Add1":"千葉市緑区","Add2":"おゆみ野4-23-2","Type":"認可外"},"geometry":{"type":"Point","coordinates":[140.177133,35.557603]}},{"type":"Feature","properties":{"P14_001":"千葉県","P14_002":"千葉市緑区","P14_003":"おゆみ野3-37-3","P14_004":"19","P14_005":"19008","P14_006":"803","P14_007":"げんき保育園","P14_008":"4","P14_009":"23","P14_010":"数値地図","P14_011":"千葉県＿千葉ninkagai10.pdf,千葉県＿千葉room10.pdf","Name":"げんき保育園","Label":"げんき保育園","Add1":"千葉市緑区","Add2":"おゆみ野3-37-3","Type":"認可外"},"geometry":{"type":"Point","coordinates":[140.175081,35.55937]}},{"type":"Feature","properties":{"P14_001":"千葉県","P14_002":"千葉市緑区","P14_003":"土気町630-8","P14_004":"19","P14_005":"19008","P14_006":"803","P14_007":"子どものまきば保育園","P14_008":"4","P14_009":"35","P14_010":"数値地図","P14_011":"千葉県＿千葉ninkagai10.pdf,千葉県＿千葉room10.pdf","Name":"子どものまきば保育園","Label":"子どものまきば保育園","Add1":"千葉市緑区","Add2":"土気町630-8","Type":"認可外"},"geometry":{"type":"Point","coordinates":[140.280261,35.531196]}},{"type":"Feature","properties":{"P14_001":"千葉県","P14_002":"千葉市緑区","P14_003":"高田町1084","P14_004":"19","P14_005":"19008","P14_006":"803","P14_007":"さくらんぼ保育園","P14_008":"0","P14_009":"13","P14_010":"数値地図","P14_011":"千葉県＿千葉ninkagai10.pdf,千葉県＿千葉room10.pdf","Name":"さくらんぼ保育園","Label":"さくらんぼ保育園","Add1":"千葉市緑区","Add2":"高田町1084","Type":"認可外"},"geometry":{"type":"Point","coordinates":[140.224566,35.550454]}},{"type":"Feature","properties":{"P14_001":"千葉県","P14_002":"千葉市緑区","P14_003":"おゆみ野中央5-35-2","P14_004":"19","P14_005":"19008","P14_006":"803","P14_007":"第２げんき保育園","P14_008":"4","P14_009":"23","P14_010":"数値地図","P14_011":"千葉県＿千葉ninkagai10.pdf,千葉県＿千葉room10.pdf","Name":"第２げんき保育園","Label":"第２げんき保育園","Add1":"千葉市緑区","Add2":"おゆみ野中央5-35-2","Type":"認可外"},"geometry":{"type":"Point","coordinates":[140.175176,35.555947]}},{"type":"Feature","properties":{"P14_001":"千葉県","P14_002":"千葉市緑区","P14_003":"おゆみ野3-39-1ｾﾝﾄｱﾍﾞﾆｭｰ102","P14_004":"19","P14_005":"19008","P14_006":"803","P14_007":"ちびっこランドおゆみ野園","P14_008":"4","P14_009":"35","P14_010":"数値地図","P14_011":"千葉県＿千葉ninkagai10.pdf,千葉県＿千葉room10.pdf","Name":"ちびっこランドおゆみ野園","Label":"ちびっこランドおゆみ野園","Add1":"千葉市緑区","Add2":"おゆみ野3-39-1ｾﾝﾄｱﾍﾞﾆｭｰ102","Type":"認可外"},"geometry":{"type":"Point","coordinates":[140.175633,35.55823]}},{"type":"Feature","properties":{"P14_001":"千葉県","P14_002":"千葉市緑区","P14_003":"おゆみ野中央6-50-10","P14_004":"19","P14_005":"19008","P14_006":"803","P14_007":"マミー＆ミーおゆみ野","P14_008":"4","P14_009":"25","P14_010":"数値地図","P14_011":"千葉県＿千葉ninkagai10.pdf,千葉県＿千葉room10.pdf","Name":"マミー＆ミーおゆみ野","Label":"マミー＆ミーおゆみ野","Add1":"千葉市緑区","Add2":"おゆみ野中央6-50-10","Type":"認可外"},"geometry":{"type":"Point","coordinates":[140.184946,35.552003]}},{"type":"Feature","properties":{"P14_001":"千葉県","P14_002":"千葉市緑区","P14_003":"あすみが丘8-1-1","P14_004":"19","P14_005":"19008","P14_006":"803","P14_007":"森のおうちコッコロ","P14_008":"4","P14_009":"25","P14_010":"数値地図","P14_011":"千葉県＿千葉ninkagai10.pdf,千葉県＿千葉room10.pdf","Name":"森のおうちコッコロ","Label":"森のおうちコッコロ","Add1":"千葉市緑区","Add2":"あすみが丘8-1-1","Type":"認可外"},"geometry":{"type":"Point","coordinates":[140.270572,35.521504]}},{"type":"Feature","properties":{"P14_001":"千葉県","P14_002":"千葉市緑区","P14_003":"おゆみ野南2-12-1","P14_004":"19","P14_005":"19008","P14_006":"803","P14_007":"リトルガーデンおゆみ野","P14_008":"0","P14_009":"59","P14_010":"数値地図","P14_011":"千葉県＿千葉ninkagai10.pdf,千葉県＿千葉room10.pdf","Name":"リトルガーデンおゆみ野","Label":"リトルガーデンおゆみ野","Add1":"千葉市緑区","Add2":"おゆみ野南2-12-1","Type":"認可外"},"geometry":{"type":"Point","coordinates":[140.166686,35.551825]}},{"type":"Feature","properties":{"P14_001":"千葉県","P14_002":"千葉市美浜区","P14_003":"幸町1-16-5かね庄K1ﾋﾞﾙ2F","P14_004":"19","P14_005":"19008","P14_006":"803","P14_007":"なのはな保育所幸町ルーム","P14_008":"4","P14_009":"40","P14_010":"数値地図","P14_011":"千葉県＿千葉ninkagai10.pdf,千葉県＿千葉room10.pdf","Name":"なのはな保育所幸町ルーム","Label":"なのはな保育所幸町ルーム","Add1":"千葉市美浜区","Add2":"幸町1-16-5かね庄K1ﾋﾞﾙ2F","Type":"認可外"},"geometry":{"type":"Point","coordinates":[140.099447,35.614907]}},{"type":"Feature","properties":{"P14_001":"千葉県","P14_002":"千葉市美浜区","P14_003":"打瀬2-9ﾊﾟﾃｨｵｽ16番街1F","P14_004":"19","P14_005":"19008","P14_006":"803","P14_007":"ベビーステーション幕張","P14_008":"4","P14_009":"33","P14_010":"数値地図","P14_011":"千葉県＿千葉ninkagai10.pdf,千葉県＿千葉room10.pdf","Name":"ベビーステーション幕張","Label":"ベビーステーション幕張","Add1":"千葉市美浜区","Add2":"打瀬2-9ﾊﾟﾃｨｵｽ16番街1F","Type":"認可外"},"geometry":{"type":"Point","coordinates":[140.043371,35.640095]}},{"type":"Feature","properties":{"P14_001":"千葉県","P14_002":"千葉市美浜区","P14_003":"中瀬2-6WBGﾏﾘﾌﾞｳｪｽﾄ2F","P14_004":"19","P14_005":"19008","P14_006":"803","P14_007":"リトルガーデンＷＢＧ","P14_008":"0","P14_009":"65","P14_010":"数値地図","P14_011":"千葉県＿千葉ninkagai10.pdf,千葉県＿千葉room10.pdf","Name":"リトルガーデンＷＢＧ","Label":"リトルガーデンＷＢＧ","Add1":"千葉市美浜区","Add2":"中瀬2-6WBGﾏﾘﾌﾞｳｪｽﾄ2F","Type":"認可外"},"geometry":{"type":"Point","coordinates":[140.038395,35.648386]}},{"type":"Feature","properties":{"P14_001":"千葉県","P14_002":"千葉市美浜区","P14_003":"中瀬1-6NTT幕張ﾋﾞﾙ1F","P14_004":"19","P14_005":"19008","P14_006":"803","P14_007":"リトルガーデン幕張","P14_008":"0","P14_009":"100","P14_010":"数値地図","P14_011":"千葉県＿千葉ninkagai10.pdf,千葉県＿千葉room10.pdf","Name":"リトルガーデン幕張","Label":"リトルガーデン幕張","Add1":"千葉市美浜区","Add2":"中瀬1-6NTT幕張ﾋﾞﾙ1F","Type":"認可外"},"geometry":{"type":"Point","coordinates":[140.039703,35.65276]}},{"type":"Feature","properties":{"P14_001":"千葉県","P14_002":"千葉市中央区","P14_003":"登戸2-11-6","P14_004":"19","P14_005":"19008","P14_006":"803","P14_007":"そらまめ幼保園","P14_008":"4","P14_009":"40","P14_010":"数値地図","P14_011":"千葉県＿千葉ninkagai10.pdf","Name":"そらまめ幼保園","Label":"そらまめ幼保園","Add1":"千葉市中央区","Add2":"登戸2-11-6","Type":"認可外"},"geometry":{"type":"Point","coordinates":[140.108278,35.612083]}},{"type":"Feature","properties":{"P14_001":"千葉県","P14_002":"千葉市中央区","P14_003":"中央3-12-9中央ビル1F","P14_004":"19","P14_005":"19008","P14_006":"803","P14_007":"小さな森の保育園","P14_008":"9","P14_009":"27","P14_010":"数値地図","P14_011":"千葉県＿千葉ninkagai10.pdf","Name":"小さな森の保育園","Label":"小さな森の保育園","Add1":"千葉市中央区","Add2":"中央3-12-9中央ビル1F","Type":"認可外"},"geometry":{"type":"Point","coordinates":[140.124449,35.608029]}},{"type":"Feature","properties":{"P14_001":"千葉県","P14_002":"千葉市花見川区","P14_003":"幕張本郷3-5-1-102","P14_004":"19","P14_005":"19008","P14_006":"803","P14_007":"スクルドエンジェル保育園","P14_008":"4","P14_009":"27","P14_010":"数値地図","P14_011":"千葉県＿千葉ninkagai10.pdf","Name":"スクルドエンジェル保育園","Label":"スクルドエンジェル保育園","Add1":"千葉市花見川区","Add2":"幕張本郷3-5-1-102","Type":"認可外"},"geometry":{"type":"Point","coordinates":[140.044901,35.668043]}},{"type":"Feature","properties":{"P14_001":"千葉県","P14_002":"千葉市花見川区","P14_003":"南花園2-2-12-201","P14_004":"19","P14_005":"19008","P14_006":"803","P14_007":"ちびっこランド新検見川園","P14_008":"9","P14_009":"40","P14_010":"数値地図","P14_011":"千葉県＿千葉ninkagai10.pdf","Name":"ちびっこランド新検見川園","Label":"ちびっこランド新検見川園","Add1":"千葉市花見川区","Add2":"南花園2-2-12-201","Type":"認可外"},"geometry":{"type":"Point","coordinates":[140.072426,35.651268]}},{"type":"Feature","properties":{"P14_001":"千葉県","P14_002":"千葉市稲毛区","P14_003":"作草部592-2医療ビル2F","P14_004":"19","P14_005":"19008","P14_006":"803","P14_007":"ぴょこたんランド","P14_008":"4","P14_009":"65","P14_010":"数値地図","P14_011":"千葉県＿千葉ninkagai10.pdf","Name":"ぴょこたんランド","Label":"ぴょこたんランド","Add1":"千葉市稲毛区","Add2":"作草部592-2医療ビル2F","Type":"認可外"},"geometry":{"type":"Point","coordinates":[140.116987,35.624133]}},{"type":"Feature","properties":{"P14_001":"千葉県","P14_002":"千葉市稲毛区","P14_003":"園生町787-4","P14_004":"19","P14_005":"19008","P14_006":"803","P14_007":"ウィズダムナーサリースクール","P14_008":"9","P14_009":"48","P14_010":"数値地図","P14_011":"千葉県＿千葉ninkagai10.pdf","Name":"ウィズダムナーサリースクール","Label":"ウィズダムナーサリースクール","Add1":"千葉市稲毛区","Add2":"園生町787-4","Type":"認可外"},"geometry":{"type":"Point","coordinates":[140.106658,35.646094]}},{"type":"Feature","properties":{"P14_001":"千葉県","P14_002":"千葉市稲毛区","P14_003":"長沼町310","P14_004":"19","P14_005":"19008","P14_006":"803","P14_007":"草野保育園","P14_008":"9","P14_009":"70","P14_010":"数値地図","P14_011":"千葉県＿千葉ninkagai10.pdf","Name":"草野保育園","Label":"草野保育園","Add1":"千葉市稲毛区","Add2":"長沼町310","Type":"認可外"},"geometry":{"type":"Point","coordinates":[140.116852,35.654433]}},{"type":"Feature","properties":{"P14_001":"千葉県","P14_002":"千葉市稲毛区","P14_003":"宮野木町1722-132","P14_004":"19","P14_005":"19008","P14_006":"803","P14_007":"ハニーキッズ稲毛園","P14_008":"9","P14_009":"20","P14_010":"数値地図","P14_011":"千葉県＿千葉ninkagai10.pdf","Name":"ハニーキッズ稲毛園","Label":"ハニーキッズ稲毛園","Add1":"千葉市稲毛区","Add2":"宮野木町1722-132","Type":"認可外"},"geometry":{"type":"Point","coordinates":[140.107768,35.653909]}},{"type":"Feature","properties":{"P14_001":"千葉県","P14_002":"千葉市緑区","P14_003":"おゆみ野1-26-2D-202","P14_004":"19","P14_005":"19008","P14_006":"803","P14_007":"そうわ保育園","P14_008":"9","P14_009":"16","P14_010":"数値地図","P14_011":"千葉県＿千葉ninkagai10.pdf","Name":"そうわ保育園","Label":"そうわ保育園","Add1":"千葉市緑区","Add2":"おゆみ野1-26-2D-202","Type":"認可外"},"geometry":{"type":"Point","coordinates":[140.16267,35.564159]}},{"type":"Feature","properties":{"P14_001":"千葉県","P14_002":"千葉市緑区","P14_003":"おゆみ野3-30-3","P14_004":"19","P14_005":"19008","P14_006":"803","P14_007":"第３げんき保育園","P14_008":"9","P14_009":"23","P14_010":"数値地図","P14_011":"千葉県＿千葉ninkagai10.pdf","Name":"第３げんき保育園","Label":"第３げんき保育園","Add1":"千葉市緑区","Add2":"おゆみ野3-30-3","Type":"認可外"},"geometry":{"type":"Point","coordinates":[140.1738,35.560164]}},{"type":"Feature","properties":{"P14_001":"千葉県","P14_002":"千葉市美浜区","P14_003":"真砂3-13-12BAYPERCH真砂2F","P14_004":"19","P14_005":"19008","P14_006":"803","P14_007":"ちびっこランド検見川浜園","P14_008":"9","P14_009":"25","P14_010":"数値地図","P14_011":"千葉県＿千葉ninkagai10.pdf","Name":"ちびっこランド検見川浜園","Label":"ちびっこランド検見川浜園","Add1":"千葉市美浜区","Add2":"真砂3-13-12BAYPERCH真砂2F","Type":"認可外"},"geometry":{"type":"Point","coordinates":[140.062308,35.636407]}},{"type":"Feature","properties":{"P14_001":"千葉県","P14_002":"千葉市稲毛区","P14_003":"弥生町1-33","P14_004":"16","P14_005":"16011","P14_006":"804","P14_007":"千葉大学教育学部附属幼稚園","P14_008":"1","P14_009":"160","P14_010":"数値地図","P14_011":"全国学校総覧,千葉県＿国公立幼稚園.xls","Name":"千葉大学教育学部附属幼稚園","Label":"千葉大学教育学部附属幼稚園","Add1":"千葉市稲毛区","Add2":"弥生町1-33","Type":"幼稚園"},"geometry":{"type":"Point","coordinates":[140.103572,35.62636]}},{"type":"Feature","properties":{"P14_001":"千葉県","P14_002":"千葉市緑区","P14_003":"おゆみ野2-1-15","P14_004":"19","P14_005":"19008","P14_006":"805","P14_007":"かしの木","P14_008":"0","P14_009":"40","P14_010":"数値地図","P14_011":"千葉県＿子ども園.pdf(http://www.pref.chiba.lg.jp/jika/hoikusho/nintei/ichiran/index.html)","Name":"かしの木","Label":"かしの木","Add1":"千葉市緑区","Add2":"おゆみ野2-1-15","Type":"認可保育所"},"geometry":{"type":"Point","coordinates":[140.172857,35.564879]}},{"type":"Feature","properties":{"P14_001":"千葉県","P14_002":"千葉市稲毛区","P14_003":"轟町5丁目2-12","P14_004":"16","P14_005":"16011","P14_006":"804","P14_007":"愛隣幼稚園","P14_008":"0","P14_009":"160","P14_010":"数値地図","P14_011":"全国学校総覧,千葉県＿幼稚園.pdf","Name":"愛隣幼稚園","Label":"愛隣幼稚園","Add1":"千葉市稲毛区","Add2":"轟町5丁目2-12","Type":"幼稚園"},"geometry":{"type":"Point","coordinates":[140.110627,35.630749]}},{"type":"Feature","properties":{"P14_001":"千葉県","P14_002":"千葉市花見川区","P14_003":"検見川町1丁目48","P14_004":"16","P14_005":"16011","P14_006":"804","P14_007":"青い鳥幼稚園","P14_008":"0","P14_009":"100","P14_010":"数値地図","P14_011":"全国学校総覧,千葉県＿幼稚園.pdf","Name":"青い鳥幼稚園","Label":"青い鳥幼稚園","Add1":"千葉市花見川区","Add2":"検見川町1丁目48","Type":"幼稚園"},"geometry":{"type":"Point","coordinates":[140.065825,35.650995]}},{"type":"Feature","properties":{"P14_001":"千葉県","P14_002":"千葉市花見川区","P14_003":"さつきが丘2丁目13","P14_004":"16","P14_005":"16011","P14_006":"804","P14_007":"青い鳥第二幼稚園","P14_008":"0","P14_009":"200","P14_010":"数値地図","P14_011":"全国学校総覧,千葉県＿幼稚園.pdf","Name":"青い鳥第二幼稚園","Label":"青い鳥第二幼稚園","Add1":"千葉市花見川区","Add2":"さつきが丘2丁目13","Type":"幼稚園"},"geometry":{"type":"Point","coordinates":[140.092267,35.666188]}},{"type":"Feature","properties":{"P14_001":"千葉県","P14_002":"千葉市中央区","P14_003":"仁戸名町205","P14_004":"16","P14_005":"16011","P14_006":"804","P14_007":"葵幼稚園","P14_008":"0","P14_009":"200","P14_010":"数値地図","P14_011":"全国学校総覧,千葉県＿幼稚園.pdf","Name":"葵幼稚園","Label":"葵幼稚園","Add1":"千葉市中央区","Add2":"仁戸名町205","Type":"幼稚園"},"geometry":{"type":"Point","coordinates":[140.162152,35.592089]}},{"type":"Feature","properties":{"P14_001":"千葉県","P14_002":"千葉市花見川区","P14_003":"西小中台2-1","P14_004":"16","P14_005":"16011","P14_006":"804","P14_007":"暁幼稚園","P14_008":"0","P14_009":"400","P14_010":"数値地図","P14_011":"全国学校総覧,千葉県＿幼稚園.pdf","Name":"暁幼稚園","Label":"暁幼稚園","Add1":"千葉市花見川区","Add2":"西小中台2-1","Type":"幼稚園"},"geometry":{"type":"Point","coordinates":[140.086684,35.6523]}},{"type":"Feature","properties":{"P14_001":"千葉県","P14_002":"千葉市緑区","P14_003":"あすみが丘6丁目23-2","P14_004":"16","P14_005":"16011","P14_006":"804","P14_007":"あすみ中央幼稚園","P14_008":"0","P14_009":"200","P14_010":"数値地図","P14_011":"全国学校総覧,千葉県＿幼稚園.pdf","Name":"あすみ中央幼稚園","Label":"あすみ中央幼稚園","Add1":"千葉市緑区","Add2":"あすみが丘6丁目23-2","Type":"幼稚園"},"geometry":{"type":"Point","coordinates":[140.264061,35.519042]}},{"type":"Feature","properties":{"P14_001":"千葉県","P14_002":"千葉市稲毛区","P14_003":"穴川町375","P14_004":"16","P14_005":"16011","P14_006":"804","P14_007":"穴川花園幼稚園","P14_008":"0","P14_009":"270","P14_010":"数値地図","P14_011":"全国学校総覧,千葉県＿幼稚園.pdf","Name":"穴川花園幼稚園","Label":"穴川花園幼稚園","Add1":"千葉市稲毛区","Add2":"穴川町375","Type":"幼稚園"},"geometry":{"type":"Point","coordinates":[140.109016,35.638442]}},{"type":"Feature","properties":{"P14_001":"千葉県","P14_002":"千葉市稲毛区","P14_003":"園生町468-1","P14_004":"16","P14_005":"16011","P14_006":"804","P14_007":"あやめ台幼稚園","P14_008":"0","P14_009":"360","P14_010":"数値地図","P14_011":"全国学校総覧,千葉県＿幼稚園.pdf","Name":"あやめ台幼稚園","Label":"あやめ台幼稚園","Add1":"千葉市稲毛区","Add2":"園生町468-1","Type":"幼稚園"},"geometry":{"type":"Point","coordinates":[140.115515,35.64608]}},{"type":"Feature","properties":{"P14_001":"千葉県","P14_002":"千葉市稲毛区","P14_003":"柏台1-25","P14_004":"16","P14_005":"16011","P14_006":"804","P14_007":"あやめ台第二幼稚園","P14_008":"0","P14_009":"200","P14_010":"数値地図","P14_011":"全国学校総覧,千葉県＿幼稚園.pdf","Name":"あやめ台第二幼稚園","Label":"あやめ台第二幼稚園","Add1":"千葉市稲毛区","Add2":"柏台1-25","Type":"幼稚園"},"geometry":{"type":"Point","coordinates":[140.109766,35.651912]}},{"type":"Feature","properties":{"P14_001":"千葉県","P14_002":"千葉市若葉区","P14_003":"小倉台3丁目11-1","P14_004":"16","P14_005":"16011","P14_006":"804","P14_007":"泉幼稚園","P14_008":"0","P14_009":"190","P14_010":"数値地図","P14_011":"全国学校総覧,千葉県＿幼稚園.pdf","Name":"泉幼稚園","Label":"泉幼稚園","Add1":"千葉市若葉区","Add2":"小倉台3丁目11-1","Type":"幼稚園"},"geometry":{"type":"Point","coordinates":[140.174319,35.628004]}},{"type":"Feature","properties":{"P14_001":"千葉県","P14_002":"千葉市美浜区","P14_003":"磯辺4丁目14-1","P14_004":"16","P14_005":"16011","P14_006":"804","P14_007":"磯辺白百合幼稚園","P14_008":"0","P14_009":"300","P14_010":"数値地図","P14_011":"全国学校総覧,千葉県＿幼稚園.pdf","Name":"磯辺白百合幼稚園","Label":"磯辺白百合幼稚園","Add1":"千葉市美浜区","Add2":"磯辺4丁目14-1","Type":"幼稚園"},"geometry":{"type":"Point","coordinates":[140.05916,35.631858]}},{"type":"Feature","properties":{"P14_001":"千葉県","P14_002":"千葉市稲毛区","P14_003":"稲毛町5丁目100-1","P14_004":"16","P14_005":"16011","P14_006":"804","P14_007":"稲毛幼稚園","P14_008":"0","P14_009":"210","P14_010":"数値地図","P14_011":"全国学校総覧,千葉県＿幼稚園.pdf","Name":"稲毛幼稚園","Label":"稲毛幼稚園","Add1":"千葉市稲毛区","Add2":"稲毛町5丁目100-1","Type":"幼稚園"},"geometry":{"type":"Point","coordinates":[140.08088,35.641718]}},{"type":"Feature","properties":{"P14_001":"千葉県","P14_002":"千葉市稲毛区","P14_003":"稲毛東1丁目14-13","P14_004":"16","P14_005":"16011","P14_006":"804","P14_007":"稲毛すみれ幼稚園","P14_008":"0","P14_009":"300","P14_010":"数値地図","P14_011":"全国学校総覧,千葉県＿幼稚園.pdf","Name":"稲毛すみれ幼稚園","Label":"稲毛すみれ幼稚園","Add1":"千葉市稲毛区","Add2":"稲毛東1丁目14-13","Type":"幼稚園"},"geometry":{"type":"Point","coordinates":[140.088657,35.63408]}},{"type":"Feature","properties":{"P14_001":"千葉県","P14_002":"千葉市中央区","P14_003":"祐光1丁目9-5","P14_004":"16","P14_005":"16011","P14_006":"804","P14_007":"院内幼稚園","P14_008":"0","P14_009":"190","P14_010":"数値地図","P14_011":"全国学校総覧,千葉県＿幼稚園.pdf","Name":"院内幼稚園","Label":"院内幼稚園","Add1":"千葉市中央区","Add2":"祐光1丁目9-5","Type":"幼稚園"},"geometry":{"type":"Point","coordinates":[140.128016,35.61753]}},{"type":"Feature","properties":{"P14_001":"千葉県","P14_002":"千葉市中央区","P14_003":"弁天2丁目7-1","P14_004":"16","P14_005":"16011","P14_006":"804","P14_007":"植草学園大学附属弁天幼稚園","P14_008":"0","P14_009":"100","P14_010":"数値地図","P14_011":"全国学校総覧,千葉県＿幼稚園.pdf","Name":"植草学園大学附属弁天幼稚園","Label":"植草学園大学附属弁天幼稚園","Add1":"千葉市中央区","Add2":"弁天2丁目7-1","Type":"幼稚園"},"geometry":{"type":"Point","coordinates":[140.114767,35.615585]}},{"type":"Feature","properties":{"P14_001":"千葉県","P14_002":"千葉市美浜区","P14_003":"高洲1丁目17-8","P14_004":"16","P14_005":"16011","P14_006":"804","P14_007":"植草学園大学附属美浜幼稚園","P14_008":"0","P14_009":"270","P14_010":"数値地図","P14_011":"全国学校総覧,千葉県＿幼稚園.pdf","Name":"植草学園大学附属美浜幼稚園","Label":"植草学園大学附属美浜幼稚園","Add1":"千葉市美浜区","Add2":"高洲1丁目17-8","Type":"幼稚園"},"geometry":{"type":"Point","coordinates":[140.077263,35.631182]}},{"type":"Feature","properties":{"P14_001":"千葉県","P14_002":"千葉市中央区","P14_003":"矢作町939-6","P14_004":"16","P14_005":"16011","P14_006":"804","P14_007":"梅乃園幼稚園","P14_008":"0","P14_009":"200","P14_010":"数値地図","P14_011":"全国学校総覧,千葉県＿幼稚園.pdf","Name":"梅乃園幼稚園","Label":"梅乃園幼稚園","Add1":"千葉市中央区","Add2":"矢作町939-6","Type":"幼稚園"},"geometry":{"type":"Point","coordinates":[140.141905,35.601867]}},{"type":"Feature","properties":{"P14_001":"千葉県","P14_002":"千葉市若葉区","P14_003":"大宮台6丁目10-3","P14_004":"16","P14_005":"16011","P14_006":"804","P14_007":"大宮幼稚園","P14_008":"0","P14_009":"170","P14_010":"数値地図","P14_011":"全国学校総覧,千葉県＿幼稚園.pdf","Name":"大宮幼稚園","Label":"大宮幼稚園","Add1":"千葉市若葉区","Add2":"大宮台6丁目10-3","Type":"幼稚園"},"geometry":{"type":"Point","coordinates":[140.181705,35.595366]}},{"type":"Feature","properties":{"P14_001":"千葉県","P14_002":"千葉市緑区","P14_003":"おゆみ野4丁目30","P14_004":"16","P14_005":"16011","P14_006":"804","P14_007":"おゆみの幼稚園","P14_008":"0","P14_009":"270","P14_010":"数値地図","P14_011":"全国学校総覧,千葉県＿幼稚園.pdf","Name":"おゆみの幼稚園","Label":"おゆみの幼稚園","Add1":"千葉市緑区","Add2":"おゆみ野4丁目30","Type":"幼稚園"},"geometry":{"type":"Point","coordinates":[140.179903,35.557759]}},{"type":"Feature","properties":{"P14_001":"千葉県","P14_002":"千葉市緑区","P14_003":"大金沢町381-1","P14_004":"16","P14_005":"16011","P14_006":"804","P14_007":"おゆみ野南幼稚園","P14_008":"0","P14_009":"370","P14_010":"数値地図","P14_011":"全国学校総覧,千葉県＿幼稚園.pdf","Name":"おゆみ野南幼稚園","Label":"おゆみ野南幼稚園","Add1":"千葉市緑区","Add2":"大金沢町381-1","Type":"幼稚園"},"geometry":{"type":"Point","coordinates":[140.189848,35.540416]}},{"type":"Feature","properties":{"P14_001":"千葉県","P14_002":"千葉市緑区","P14_003":"大木戸町428-1","P14_004":"16","P14_005":"16011","P14_006":"804","P14_007":"鏡戸幼稚園","P14_008":"0","P14_009":"340","P14_010":"数値地図","P14_011":"全国学校総覧,千葉県＿幼稚園.pdf","Name":"鏡戸幼稚園","Label":"鏡戸幼稚園","Add1":"千葉市緑区","Add2":"大木戸町428-1","Type":"幼稚園"},"geometry":{"type":"Point","coordinates":[140.24834,35.528873]}},{"type":"Feature","properties":{"P14_001":"千葉県","P14_002":"千葉市若葉区","P14_003":"加曽利町953-3","P14_004":"16","P14_005":"16011","P14_006":"804","P14_007":"加曽利幼稚園","P14_008":"0","P14_009":"400","P14_010":"数値地図","P14_011":"全国学校総覧,千葉県＿幼稚園.pdf","Name":"加曽利幼稚園","Label":"加曽利幼稚園","Add1":"千葉市若葉区","Add2":"加曽利町953-3","Type":"幼稚園"},"geometry":{"type":"Point","coordinates":[140.156209,35.614199]}},{"type":"Feature","properties":{"P14_001":"千葉県","P14_002":"千葉市中央区","P14_003":"稲荷町3丁目12-6","P14_004":"16","P14_005":"16011","P14_006":"804","P14_007":"九重幼稚園","P14_008":"0","P14_009":"300","P14_010":"数値地図","P14_011":"全国学校総覧,千葉県＿幼稚園.pdf","Name":"九重幼稚園","Label":"九重幼稚園","Add1":"千葉市中央区","Add2":"稲荷町3丁目12-6","Type":"幼稚園"},"geometry":{"type":"Point","coordinates":[140.126796,35.587033]}},{"type":"Feature","properties":{"P14_001":"千葉県","P14_002":"千葉市緑区","P14_003":"平山町65-1","P14_004":"16","P14_005":"16011","P14_006":"804","P14_007":"こざくら幼稚園","P14_008":"0","P14_009":"310","P14_010":"数値地図","P14_011":"全国学校総覧,千葉県＿幼稚園.pdf","Name":"こざくら幼稚園","Label":"こざくら幼稚園","Add1":"千葉市緑区","Add2":"平山町65-1","Type":"幼稚園"},"geometry":{"type":"Point","coordinates":[140.180151,35.583117]}},{"type":"Feature","properties":{"P14_001":"千葉県","P14_002":"千葉市美浜区","P14_003":"真砂4丁目17-2","P14_004":"16","P14_005":"16011","P14_006":"804","P14_007":"こざくら第二幼稚園","P14_008":"0","P14_009":"300","P14_010":"数値地図","P14_011":"全国学校総覧,千葉県＿幼稚園.pdf","Name":"こざくら第二幼稚園","Label":"こざくら第二幼稚園","Add1":"千葉市美浜区","Add2":"真砂4丁目17-2","Type":"幼稚園"},"geometry":{"type":"Point","coordinates":[140.058021,35.641412]}},{"type":"Feature","properties":{"P14_001":"千葉県","P14_002":"千葉市美浜区","P14_003":"幸町1丁目5-1","P14_004":"16","P14_005":"16011","P14_006":"804","P14_007":"子鹿幼稚園","P14_008":"0","P14_009":"270","P14_010":"数値地図","P14_011":"全国学校総覧,千葉県＿幼稚園.pdf","Name":"子鹿幼稚園","Label":"子鹿幼稚園","Add1":"千葉市美浜区","Add2":"幸町1丁目5-1","Type":"幼稚園"},"geometry":{"type":"Point","coordinates":[140.102657,35.612446]}},{"type":"Feature","properties":{"P14_001":"千葉県","P14_002":"千葉市花見川区","P14_003":"横戸町857","P14_004":"16","P14_005":"16011","P14_006":"804","P14_007":"こてはし台幼稚園","P14_008":"0","P14_009":"310","P14_010":"数値地図","P14_011":"全国学校総覧,千葉県＿幼稚園.pdf","Name":"こてはし台幼稚園","Label":"こてはし台幼稚園","Add1":"千葉市花見川区","Add2":"横戸町857","Type":"幼稚園"},"geometry":{"type":"Point","coordinates":[140.12518,35.685186]}},{"type":"Feature","properties":{"P14_001":"千葉県","P14_002":"千葉市稲毛区","P14_003":"小仲台8丁目20-1","P14_004":"16","P14_005":"16011","P14_006":"804","P14_007":"小中台幼稚園","P14_008":"0","P14_009":"400","P14_010":"数値地図","P14_011":"全国学校総覧,千葉県＿幼稚園.pdf","Name":"小中台幼稚園","Label":"小中台幼稚園","Add1":"千葉市稲毛区","Add2":"小仲台8丁目20-1","Type":"幼稚園"},"geometry":{"type":"Point","coordinates":[140.089157,35.645246]}},{"type":"Feature","properties":{"P14_001":"千葉県","P14_002":"千葉市稲毛区","P14_003":"天台1丁目7-17","P14_004":"16","P14_005":"16011","P14_006":"804","P14_007":"小ばと幼稚園","P14_008":"0","P14_009":"170","P14_010":"数値地図","P14_011":"全国学校総覧,千葉県＿幼稚園.pdf","Name":"小ばと幼稚園","Label":"小ばと幼稚園","Add1":"千葉市稲毛区","Add2":"天台1丁目7-17","Type":"幼稚園"},"geometry":{"type":"Point","coordinates":[140.113626,35.632859]}},{"type":"Feature","properties":{"P14_001":"千葉県","P14_002":"千葉市中央区","P14_003":"東本町5-1","P14_004":"16","P14_005":"16011","P14_006":"804","P14_007":"羔幼稚園","P14_008":"0","P14_009":"180","P14_010":"数値地図","P14_011":"全国学校総覧,千葉県＿幼稚園.pdf","Name":"羔幼稚園","Label":"羔幼稚園","Add1":"千葉市中央区","Add2":"東本町5-1","Type":"幼稚園"},"geometry":{"type":"Point","coordinates":[140.129128,35.610504]}},{"type":"Feature","properties":{"P14_001":"千葉県","P14_002":"千葉市中央区","P14_003":"宮崎町234-1","P14_004":"16","P14_005":"16011","P14_006":"804","P14_007":"こまどり幼稚園","P14_008":"0","P14_009":"300","P14_010":"数値地図","P14_011":"全国学校総覧,千葉県＿幼稚園.pdf","Name":"こまどり幼稚園","Label":"こまどり幼稚園","Add1":"千葉市中央区","Add2":"宮崎町234-1","Type":"幼稚園"},"geometry":{"type":"Point","coordinates":[140.138878,35.584617]}},{"type":"Feature","properties":{"P14_001":"千葉県","P14_002":"千葉市花見川区","P14_003":"幕張町5丁目241","P14_004":"16","P14_005":"16011","P14_006":"804","P14_007":"さざれ幼稚園","P14_008":"4","P14_009":"300","P14_010":"数値地図","P14_011":"全国学校総覧,千葉県＿幼稚園.pdf","Name":"さざれ幼稚園","Label":"さざれ幼稚園","Add1":"千葉市花見川区","Add2":"幕張町5丁目241","Type":"幼稚園"},"geometry":{"type":"Point","coordinates":[140.062214,35.655577]}},{"type":"Feature","properties":{"P14_001":"千葉県","P14_002":"千葉市花見川区","P14_003":"さつきが丘1丁目33-1","P14_004":"16","P14_005":"16011","P14_006":"804","P14_007":"さつきが丘幼稚園","P14_008":"0","P14_009":"240","P14_010":"数値地図","P14_011":"全国学校総覧,千葉県＿幼稚園.pdf","Name":"さつきが丘幼稚園","Label":"さつきが丘幼稚園","Add1":"千葉市花見川区","Add2":"さつきが丘1丁目33-1","Type":"幼稚園"},"geometry":{"type":"Point","coordinates":[140.097794,35.665243]}},{"type":"Feature","properties":{"P14_001":"千葉県","P14_002":"千葉市稲毛区","P14_003":"山王町153-2","P14_004":"16","P14_005":"16011","P14_006":"804","P14_007":"山王幼稚園","P14_008":"0","P14_009":"270","P14_010":"数値地図","P14_011":"全国学校総覧,千葉県＿幼稚園.pdf","Name":"山王幼稚園","Label":"山王幼稚園","Add1":"千葉市稲毛区","Add2":"山王町153-2","Type":"幼稚園"},"geometry":{"type":"Point","coordinates":[140.141152,35.664939]}},{"type":"Feature","properties":{"P14_001":"千葉県","P14_002":"千葉市美浜区","P14_003":"磯辺7丁目16-1","P14_004":"16","P14_005":"16011","P14_006":"804","P14_007":"城徳学園いそべ幼稚園","P14_008":"0","P14_009":"270","P14_010":"数値地図","P14_011":"全国学校総覧,千葉県＿幼稚園.pdf","Name":"城徳学園いそべ幼稚園","Label":"城徳学園いそべ幼稚園","Add1":"千葉市美浜区","Add2":"磯辺7丁目16-1","Type":"幼稚園"},"geometry":{"type":"Point","coordinates":[140.053105,35.636135]}},{"type":"Feature","properties":{"P14_001":"千葉県","P14_002":"千葉市緑区","P14_003":"誉田町2丁目24","P14_004":"16","P14_005":"16011","P14_006":"804","P14_007":"白梅幼稚園","P14_008":"4","P14_009":"270","P14_010":"数値地図","P14_011":"全国学校総覧,千葉県＿幼稚園.pdf","Name":"白梅幼稚園","Label":"白梅幼稚園","Add1":"千葉市緑区","Add2":"誉田町2丁目24","Type":"幼稚園"},"geometry":{"type":"Point","coordinates":[140.212317,35.546815]}},{"type":"Feature","properties":{"P14_001":"千葉県","P14_002":"千葉市花見川区","P14_003":"朝日ヶ丘5丁目28-61","P14_004":"16","P14_005":"16011","P14_006":"804","P14_007":"新検見川幼稚園","P14_008":"0","P14_009":"270","P14_010":"数値地図","P14_011":"全国学校総覧,千葉県＿幼稚園.pdf","Name":"新検見川幼稚園","Label":"新検見川幼稚園","Add1":"千葉市花見川区","Add2":"朝日ヶ丘5丁目28-61","Type":"幼稚園"},"geometry":{"type":"Point","coordinates":[140.084157,35.661577]}},{"type":"Feature","properties":{"P14_001":"千葉県","P14_002":"千葉市花見川区","P14_003":"長作町610-1","P14_004":"16","P14_005":"16011","P14_006":"804","P14_007":"信徳寺あさひ幼稚園","P14_008":"0","P14_009":"150","P14_010":"数値地図","P14_011":"全国学校総覧,千葉県＿幼稚園.pdf","Name":"信徳寺あさひ幼稚園","Label":"信徳寺あさひ幼稚園","Add1":"千葉市花見川区","Add2":"長作町610-1","Type":"幼稚園"},"geometry":{"type":"Point","coordinates":[140.071407,35.681213]}},{"type":"Feature","properties":{"P14_001":"千葉県","P14_002":"千葉市花見川区","P14_003":"武石町2丁目1017","P14_004":"16","P14_005":"16011","P14_006":"804","P14_007":"スガハラ幼稚園","P14_008":"0","P14_009":"160","P14_010":"数値地図","P14_011":"全国学校総覧,千葉県＿幼稚園.pdf","Name":"スガハラ幼稚園","Label":"スガハラ幼稚園","Add1":"千葉市花見川区","Add2":"武石町2丁目1017","Type":"幼稚園"},"geometry":{"type":"Point","coordinates":[140.064575,35.66116]}},{"type":"Feature","properties":{"P14_001":"千葉県","P14_002":"千葉市緑区","P14_003":"辺田町552","P14_004":"16","P14_005":"16011","P14_006":"804","P14_007":"聖母マリア幼稚園","P14_008":"0","P14_009":"260","P14_010":"数値地図","P14_011":"全国学校総覧,千葉県＿幼稚園.pdf","Name":"聖母マリア幼稚園","Label":"聖母マリア幼稚園","Add1":"千葉市緑区","Add2":"辺田町552","Type":"幼稚園"},"geometry":{"type":"Point","coordinates":[140.184876,35.562509]}},{"type":"Feature","properties":{"P14_001":"千葉県","P14_002":"千葉市中央区","P14_003":"汐見丘町11-11","P14_004":"16","P14_005":"16011","P14_006":"804","P14_007":"聖マリア幼稚園","P14_008":"0","P14_009":"120","P14_010":"数値地図","P14_011":"全国学校総覧,千葉県＿幼稚園.pdf","Name":"聖マリア幼稚園","Label":"聖マリア幼稚園","Add1":"千葉市中央区","Add2":"汐見丘町11-11","Type":"幼稚園"},"geometry":{"type":"Point","coordinates":[140.105239,35.617806]}},{"type":"Feature","properties":{"P14_001":"千葉県","P14_002":"千葉市稲毛区","P14_003":"園生町956-6","P14_004":"16","P14_005":"16011","P14_006":"804","P14_007":"園生幼稚園","P14_008":"0","P14_009":"270","P14_010":"数値地図","P14_011":"全国学校総覧,千葉県＿幼稚園.pdf","Name":"園生幼稚園","Label":"園生幼稚園","Add1":"千葉市稲毛区","Add2":"園生町956-6","Type":"幼稚園"},"geometry":{"type":"Point","coordinates":[140.104433,35.641691]}},{"type":"Feature","properties":{"P14_001":"千葉県","P14_002":"千葉市美浜区","P14_003":"真砂2丁目17-82","P14_004":"16","P14_005":"16011","P14_006":"804","P14_007":"第一幼稚園","P14_008":"0","P14_009":"270","P14_010":"数値地図","P14_011":"全国学校総覧,千葉県＿幼稚園.pdf","Name":"第一幼稚園","Label":"第一幼稚園","Add1":"千葉市美浜区","Add2":"真砂2丁目17-82","Type":"幼稚園"},"geometry":{"type":"Point","coordinates":[140.068298,35.640551]}},{"type":"Feature","properties":{"P14_001":"千葉県","P14_002":"千葉市中央区","P14_003":"大巌寺町186","P14_004":"16","P14_005":"16011","P14_006":"804","P14_007":"大巌寺幼稚園","P14_008":"0","P14_009":"200","P14_010":"数値地図","P14_011":"全国学校総覧,千葉県＿幼稚園.pdf","Name":"大巌寺幼稚園","Label":"大巌寺幼稚園","Add1":"千葉市中央区","Add2":"大巌寺町186","Type":"幼稚園"},"geometry":{"type":"Point","coordinates":[140.147014,35.575146]}},{"type":"Feature","properties":{"P14_001":"千葉県","P14_002":"千葉市花見川区","P14_003":"花見川8-19","P14_004":"16","P14_005":"16011","P14_006":"804","P14_007":"第二ちぐさ幼稚園","P14_008":"0","P14_009":"190","P14_010":"数値地図","P14_011":"全国学校総覧,千葉県＿幼稚園.pdf","Name":"第二ちぐさ幼稚園","Label":"第二ちぐさ幼稚園","Add1":"千葉市花見川区","Add2":"花見川8-19","Type":"幼稚園"},"geometry":{"type":"Point","coordinates":[140.095627,35.684908]}},{"type":"Feature","properties":{"P14_001":"千葉県","P14_002":"千葉市美浜区","P14_003":"高洲3丁目3-12","P14_004":"16","P14_005":"16011","P14_006":"804","P14_007":"高洲幼稚園","P14_008":"0","P14_009":"200","P14_010":"数値地図","P14_011":"全国学校総覧,千葉県＿幼稚園.pdf","Name":"高洲幼稚園","Label":"高洲幼稚園","Add1":"千葉市美浜区","Add2":"高洲3丁目3-12","Type":"幼稚園"},"geometry":{"type":"Point","coordinates":[140.073242,35.626192]}},{"type":"Feature","properties":{"P14_001":"千葉県","P14_002":"千葉市美浜区","P14_003":"高浜1丁目8-2","P14_004":"16","P14_005":"16011","P14_006":"804","P14_007":"高浜幼稚園","P14_008":"0","P14_009":"310","P14_010":"数値地図","P14_011":"全国学校総覧,千葉県＿幼稚園.pdf","Name":"高浜幼稚園","Label":"高浜幼稚園","Add1":"千葉市美浜区","Add2":"高浜1丁目8-2","Type":"幼稚園"},"geometry":{"type":"Point","coordinates":[140.073103,35.619999]}},{"type":"Feature","properties":{"P14_001":"千葉県","P14_002":"千葉市若葉区","P14_003":"千城台南2丁目8-4","P14_004":"16","P14_005":"16011","P14_006":"804","P14_007":"千城台南幼稚園","P14_008":"0","P14_009":"285","P14_010":"数値地図","P14_011":"全国学校総覧,千葉県＿幼稚園.pdf","Name":"千城台南幼稚園","Label":"千城台南幼稚園","Add1":"千葉市若葉区","Add2":"千城台南2丁目8-4","Type":"幼稚園"},"geometry":{"type":"Point","coordinates":[140.186536,35.618781]}},{"type":"Feature","properties":{"P14_001":"千葉県","P14_002":"千葉市若葉区","P14_003":"千城台東3丁目14-13","P14_004":"16","P14_005":"16011","P14_006":"804","P14_007":"千城東幼稚園","P14_008":"0","P14_009":"200","P14_010":"数値地図","P14_011":"全国学校総覧,千葉県＿幼稚園.pdf","Name":"千城東幼稚園","Label":"千城東幼稚園","Add1":"千葉市若葉区","Add2":"千城台東3丁目14-13","Type":"幼稚園"},"geometry":{"type":"Point","coordinates":[140.194369,35.616587]}},{"type":"Feature","properties":{"P14_001":"千葉県","P14_002":"千葉市美浜区","P14_003":"高洲2丁目2-16","P14_004":"16","P14_005":"16011","P14_006":"804","P14_007":"千葉敬愛短期大学附属幼稚園","P14_008":"0","P14_009":"270","P14_010":"数値地図","P14_011":"全国学校総覧,千葉県＿幼稚園.pdf","Name":"千葉敬愛短期大学附属幼稚園","Label":"千葉敬愛短期大学附属幼稚園","Add1":"千葉市美浜区","Add2":"高洲2丁目2-16","Type":"幼稚園"},"geometry":{"type":"Point","coordinates":[140.080602,35.62547]}},{"type":"Feature","properties":{"P14_001":"千葉県","P14_002":"千葉市美浜区","P14_003":"高洲1丁目1-20","P14_004":"16","P14_005":"16011","P14_006":"804","P14_007":"千葉さざなみ幼稚園","P14_008":"0","P14_009":"200","P14_010":"数値地図","P14_011":"全国学校総覧,千葉県＿幼稚園.pdf","Name":"千葉さざなみ幼稚園","Label":"千葉さざなみ幼稚園","Add1":"千葉市美浜区","Add2":"高洲1丁目1-20","Type":"幼稚園"},"geometry":{"type":"Point","coordinates":[140.082991,35.628164]}},{"type":"Feature","properties":{"P14_001":"千葉県","P14_002":"千葉市美浜区","P14_003":"高洲2丁目3-24","P14_004":"16","P14_005":"16011","P14_006":"804","P14_007":"千葉女子専門学校附属聖幼稚園","P14_008":"0","P14_009":"270","P14_010":"数値地図","P14_011":"全国学校総覧,千葉県＿幼稚園.pdf","Name":"千葉女子専門学校附属聖幼稚園","Label":"千葉女子専門学校附属聖幼稚園","Add1":"千葉市美浜区","Add2":"高洲2丁目3-24","Type":"幼稚園"},"geometry":{"type":"Point","coordinates":[140.076436,35.622665]}},{"type":"Feature","properties":{"P14_001":"千葉県","P14_002":"千葉市美浜区","P14_003":"幸町2丁目12-8","P14_004":"16","P14_005":"16011","P14_006":"804","P14_007":"千葉白菊幼稚園","P14_008":"0","P14_009":"200","P14_010":"数値地図","P14_011":"全国学校総覧,千葉県＿幼稚園.pdf","Name":"千葉白菊幼稚園","Label":"千葉白菊幼稚園","Add1":"千葉市美浜区","Add2":"幸町2丁目12-8","Type":"幼稚園"},"geometry":{"type":"Point","coordinates":[140.091129,35.620694]}},{"type":"Feature","properties":{"P14_001":"千葉県","P14_002":"千葉市花見川区","P14_003":"作新台8丁目7-3","P14_004":"16","P14_005":"16011","P14_006":"804","P14_007":"千葉しらゆり幼稚園","P14_008":"0","P14_009":"370","P14_010":"数値地図","P14_011":"全国学校総覧,千葉県＿幼稚園.pdf","Name":"千葉しらゆり幼稚園","Label":"千葉しらゆり幼稚園","Add1":"千葉市花見川区","Add2":"作新台8丁目7-3","Type":"幼稚園"},"geometry":{"type":"Point","coordinates":[140.086239,35.685074]}},{"type":"Feature","properties":{"P14_001":"千葉県","P14_002":"千葉市若葉区","P14_003":"みつわ台3丁目6","P14_004":"16","P14_005":"16011","P14_006":"804","P14_007":"千葉聖心幼稚園","P14_008":"0","P14_009":"270","P14_010":"数値地図","P14_011":"全国学校総覧,千葉県＿幼稚園.pdf","Name":"千葉聖心幼稚園","Label":"千葉聖心幼稚園","Add1":"千葉市若葉区","Add2":"みつわ台3丁目6","Type":"幼稚園"},"geometry":{"type":"Point","coordinates":[140.136986,35.640554]}},{"type":"Feature","properties":{"P14_001":"千葉県","P14_002":"千葉市若葉区","P14_003":"桜木4丁目16-38","P14_004":"16","P14_005":"16011","P14_006":"804","P14_007":"千葉文化幼稚園","P14_008":"0","P14_009":"200","P14_010":"数値地図","P14_011":"全国学校総覧,千葉県＿幼稚園.pdf","Name":"千葉文化幼稚園","Label":"千葉文化幼稚園","Add1":"千葉市若葉区","Add2":"桜木4丁目16-38","Type":"幼稚園"},"geometry":{"type":"Point","coordinates":[140.15752,35.624636]}},{"type":"Feature","properties":{"P14_001":"千葉県","P14_002":"千葉市中央区","P14_003":"南生実町1412","P14_004":"16","P14_005":"16011","P14_006":"804","P14_007":"千葉明徳短期大学附属幼稚園","P14_008":"0","P14_009":"285","P14_010":"数値地図","P14_011":"全国学校総覧,千葉県＿幼稚園.pdf","Name":"千葉明徳短期大学附属幼稚園","Label":"千葉明徳短期大学附属幼稚園","Add1":"千葉市中央区","Add2":"南生実町1412","Type":"幼稚園"},"geometry":{"type":"Point","coordinates":[140.155596,35.560036]}},{"type":"Feature","properties":{"P14_001":"千葉県","P14_002":"千葉市若葉区","P14_003":"都賀の台4丁目26-15","P14_004":"16","P14_005":"16011","P14_006":"804","P14_007":"都賀の台幼稚園","P14_008":"0","P14_009":"200","P14_010":"数値地図","P14_011":"全国学校総覧,千葉県＿幼稚園.pdf","Name":"都賀の台幼稚園","Label":"都賀の台幼稚園","Add1":"千葉市若葉区","Add2":"都賀の台4丁目26-15","Type":"幼稚園"},"geometry":{"type":"Point","coordinates":[140.147569,35.643416]}},{"type":"Feature","properties":{"P14_001":"千葉県","P14_002":"千葉市稲毛区","P14_003":"緑町1丁目5-17","P14_004":"16","P14_005":"16011","P14_006":"804","P14_007":"土岐幼稚園","P14_008":"0","P14_009":"100","P14_010":"数値地図","P14_011":"全国学校総覧,千葉県＿幼稚園.pdf","Name":"土岐幼稚園","Label":"土岐幼稚園","Add1":"千葉市稲毛区","Add2":"緑町1丁目5-17","Type":"幼稚園"},"geometry":{"type":"Point","coordinates":[140.098684,35.624304]}},{"type":"Feature","properties":{"P14_001":"千葉県","P14_002":"千葉市緑区","P14_003":"土気町1630-7","P14_004":"16","P14_005":"16011","P14_006":"804","P14_007":"土気中央幼稚園","P14_008":"0","P14_009":"370","P14_010":"数値地図","P14_011":"全国学校総覧,千葉県＿幼稚園.pdf","Name":"土気中央幼稚園","Label":"土気中央幼稚園","Add1":"千葉市緑区","Add2":"土気町1630-7","Type":"幼稚園"},"geometry":{"type":"Point","coordinates":[140.271144,35.530902]}},{"type":"Feature","properties":{"P14_001":"千葉県","P14_002":"千葉市美浜区","P14_003":"高浜4丁目9-1","P14_004":"16","P14_005":"16011","P14_006":"804","P14_007":"なかよし幼稚園","P14_008":"0","P14_009":"100","P14_010":"数値地図","P14_011":"全国学校総覧,千葉県＿幼稚園.pdf","Name":"なかよし幼稚園","Label":"なかよし幼稚園","Add1":"千葉市美浜区","Add2":"高浜4丁目9-1","Type":"幼稚園"},"geometry":{"type":"Point","coordinates":[140.067993,35.62397]}},{"type":"Feature","properties":{"P14_001":"千葉県","P14_002":"千葉市中央区","P14_003":"仁戸名町616","P14_004":"16","P14_005":"16011","P14_006":"804","P14_007":"仁戸名幼稚園","P14_008":"0","P14_009":"200","P14_010":"数値地図","P14_011":"全国学校総覧,千葉県＿幼稚園.pdf","Name":"仁戸名幼稚園","Label":"仁戸名幼稚園","Add1":"千葉市中央区","Add2":"仁戸名町616","Type":"幼稚園"},"geometry":{"type":"Point","coordinates":[140.155707,35.585507]}},{"type":"Feature","properties":{"P14_001":"千葉県","P14_002":"千葉市若葉区","P14_003":"千城台西1丁目31-1","P14_004":"16","P14_005":"16011","P14_006":"804","P14_007":"のぞみ幼稚園","P14_008":"0","P14_009":"150","P14_010":"数値地図","P14_011":"全国学校総覧,千葉県＿幼稚園.pdf","Name":"のぞみ幼稚園","Label":"のぞみ幼稚園","Add1":"千葉市若葉区","Add2":"千城台西1丁目31-1","Type":"幼稚園"},"geometry":{"type":"Point","coordinates":[140.182149,35.625503]}},{"type":"Feature","properties":{"P14_001":"千葉県","P14_002":"千葉市中央区","P14_003":"新千葉3丁目14-18","P14_004":"16","P14_005":"16011","P14_006":"804","P14_007":"登戸幼稚園","P14_008":"0","P14_009":"100","P14_010":"数値地図","P14_011":"全国学校総覧,千葉県＿幼稚園.pdf","Name":"登戸幼稚園","Label":"登戸幼稚園","Add1":"千葉市中央区","Add2":"新千葉3丁目14-18","Type":"幼稚園"},"geometry":{"type":"Point","coordinates":[140.107434,35.61514]}},{"type":"Feature","properties":{"P14_001":"千葉県","P14_002":"千葉市花見川区","P14_003":"花園1丁目3-9","P14_004":"16","P14_005":"16011","P14_006":"804","P14_007":"花園幼稚園","P14_008":"0","P14_009":"200","P14_010":"数値地図","P14_011":"全国学校総覧,千葉県＿幼稚園.pdf","Name":"花園幼稚園","Label":"花園幼稚園","Add1":"千葉市花見川区","Add2":"花園1丁目3-9","Type":"幼稚園"},"geometry":{"type":"Point","coordinates":[140.075519,35.651883]}},