{"type":"FeatureCollection","features":[{"type":"Feature","geometry":{"type":"Point","coordinates":[140.953851,42.333509]},"properties":{"Name":"祝津保育所","Label":"祝津保育所","Owner":"室蘭市","Ownership":"公立","Proof":"N","Shanai":"N","Kodomo":"N","Type":"認可保育所","Add1":"室蘭市港南町2-4-13","Add2":null,"url":null,"TEL":"0143-24-7878","FAX":null,"Full":"55","AgeS":null,"AgeE":null,"Open":"7:30","Close":"19:30","H24":null,"Memo":"【保育短時間認定】7：30～8：30、16：30～19：30【保育標準時間認定】18：30～19：30","Extra":"Y","Temp":"N","Holiday":"N","Night":null,"Vacancy":null,"VacancyDate":null}},{"type":"Feature","geometry":{"type":"Point","coordinates":[141.016051,42.356116]},"properties":{"Name":"中島保育所","Label":"中島保育所","Owner":"室蘭市","Ownership":"公立","Proof":"N","Shanai":"N","Kodomo":"N","Type":"認可保育所","Add1":"室蘭市中島本町2-5-3","Add2":null,"url":null,"TEL":"0143-44-3793","FAX":null,"Full":"120","AgeS":null,"AgeE":null,"Open":"7:30","Close":"19:30","H24":null,"Memo":"【保育短時間認定】7：30～8：30、16：30～19：30【保育標準時間認定】18：30～19：30","Extra":"Y","Temp":"Y","Holiday":"Y","Night":null,"Vacancy":null,"VacancyDate":null}},{"type":"Feature","geometry":{"type":"Point","coordinates":[140.972224,42.311409]},"properties":{"Name":"常盤保育所","Label":"常盤保育所","Owner":"社会福祉法人室蘭福祉事業協会","Ownership":"私立","Proof":"N","Shanai":"N","Kodomo":"N","Type":"認可保育所","Add1":"室蘭市栄町2-6-16","Add2":null,"url":null,"TEL":"0143-22-3887","FAX":null,"Full":"120","AgeS":null,"AgeE":null,"Open":"7:30","Close":"19:30","H24":null,"Memo":"【保育短時間認定】7：30～8：30、16：30～19：30【保育標準時間認定】18：30～19：30","Extra":"Y","Temp":"Y","Holiday":"Y","Night":null,"Vacancy":null,"VacancyDate":null}},{"type":"Feature","geometry":{"type":"Point","coordinates":[140.993314,42.316822]},"properties":{"Name":"みどり保育園","Label":"みどり保育園","Owner":"社会福祉法人室蘭福祉事業協会","Ownership":"私立","Proof":"N","Shanai":"N","Kodomo":"N","Type":"認可保育所","Add1":"室蘭市母恋北町1-16-5","Add2":null,"url":null,"TEL":"0143-22-6296","FAX":null,"Full":"70","AgeS":null,"AgeE":null,"Open":"7:30","Close":"19:30","H24":null,"Memo":"【保育短時間認定】7：30～8：30、16：30～19：30【保育標準時間認定】18：30～19：30","Extra":"Y","Temp":"N","Holiday":"N","Night":null,"Vacancy":null,"VacancyDate":null}},{"type":"Feature","geometry":{"type":"Point","coordinates":[141.005682,42.330734]},"properties":{"Name":"双葉保育所","Label":"双葉保育所","Owner":"社会福祉法人室蘭福祉事業協会","Ownership":"私立","Proof":"N","Shanai":"N","Kodomo":"N","Type":"認可保育所","Add1":"室蘭市大沢町2-16-4","Add2":null,"url":null,"TEL":"0143-44-3612","FAX":null,"Full":"60","AgeS":null,"AgeE":null,"Open":"7:30","Close":"19:30","H24":null,"Memo":"【保育短時間認定】7：30～8：30、16：30～19：30【保育標準時間認定】18：30～19：30","Extra":"Y","Temp":"N","Holiday":"N","Night":null,"Vacancy":null,"VacancyDate":null}},{"type":"Feature","geometry":{"type":"Point","coordinates":[141.024389,42.355477]},"properties":{"Name":"楽山保育園","Label":"楽山保育園","Owner":"社会福祉法人室蘭福祉事業協会","Ownership":"私立","Proof":"N","Shanai":"N","Kodomo":"N","Type":"認可保育所","Add1":"室蘭市宮の森町1-6-16","Add2":null,"url":null,"TEL":"0143-45-4215","FAX":null,"Full":"90","AgeS":null,"AgeE":null,"Open":"7:30","Close":"19:30","H24":null,"Memo":"【保育短時間認定】7：30～8：30、16：30～19：30【保育標準時間認定】18：30～19：30","Extra":"Y","Temp":"N","Holiday":"N","Night":null,"Vacancy":null,"VacancyDate":null}},{"type":"Feature","geometry":{"type":"Point","coordinates":[141.031402,42.34852]},"properties":{"Name":"東町保育所","Label":"東町保育所","Owner":"社会福祉法人室蘭福祉事業協会","Ownership":"私立","Proof":"N","Shanai":"N","Kodomo":"N","Type":"認可保育所","Add1":"室蘭市寿町1-11-5","Add2":null,"url":null,"TEL":"0143-44-3413","FAX":null,"Full":"120","AgeS":null,"AgeE":null,"Open":"7:30","Close":"19:30","H24":null,"Memo":"【保育短時間認定】7：00～8：30、16：30～19：30【保育標準時間認定】7：00～7：30、18：30～19：30","Extra":"Y","Temp":"Y","Holiday":"N","Night":null,"Vacancy":null,"VacancyDate":null}},{"type":"Feature","geometry":{"type":"Point","coordinates":[140.937307,42.377274]},"properties":{"Name":"白鳥保育所","Label":"白鳥保育所","Owner":"社会福祉法人室蘭福祉事業協会","Ownership":"私立","Proof":"N","Shanai":"N","Kodomo":"N","Type":"認可保育所","Add1":"室蘭市白鳥台2-8-3","Add2":null,"url":null,"TEL":"0143-59-2570","FAX":null,"Full":"80","AgeS":null,"AgeE":null,"Open":"7:30","Close":"19:30","H24":null,"Memo":"【保育短時間認定】7：30～8：30、16：30～19：30【保育標準時間認定】18：30～19：30","Extra":"Y","Temp":"N","Holiday":"N","Night":null,"Vacancy":null,"VacancyDate":null}},{"type":"Feature","geometry":{"type":"Point","coordinates":[140.98412,42.363671]},"properties":{"Name":"港北保育所","Label":"港北保育所","Owner":"社会福祉法人ビハーラ室蘭","Ownership":"私立","Proof":"N","Shanai":"N","Kodomo":"N","Type":"認可保育所","Add1":"室蘭市本輪西町3-33-1","Add2":null,"url":null,"TEL":"0143-55-2200","FAX":null,"Full":"60","AgeS":null,"AgeE":null,"Open":"7:30","Close":"19:30","H24":null,"Memo":"【保育短時間認定】7：30～8：30、16：30～19：30【保育標準時間認定】18：30～19：30","Extra":"Y","Temp":"Y","Holiday":"N","Night":null,"Vacancy":null,"VacancyDate":null}},{"type":"Feature","geometry":{"type":"Point","coordinates":[141.035615,42.367012]},"properties":{"Name":"ほくと保育園","Label":"ほくと保育園","Owner":"社会福祉法人北斗文化学園福祉会","Ownership":"私立","Proof":"N","Shanai":"N","Kodomo":"N","Type":"認可保育所","Add1":"室蘭市高砂町3-11-48","Add2":null,"url":null,"TEL":"0143-45-8100","FAX":null,"Full":"150","AgeS":null,"AgeE":null,"Open":"7:30","Close":"19:30","H24":null,"Memo":"【保育短時間認定】7：30～8：30、16：30～19：30【保育標準時間認定】18：30～19：30","Extra":"Y","Temp":"N","Holiday":"N","Night":null,"Vacancy":null,"VacancyDate":null}},{"type":"Feature","geometry":{"type":"Point","coordinates":[141.005915,42.332458]},"properties":{"Name":"室蘭はだしっこ共同子供園","Label":"室蘭はだしっこ共同子供園","Owner":"ＮＰＯ法人室蘭はだしっこ共同子供園","Ownership":"私立","Proof":"Y","Shanai":"N","Kodomo":"N","Type":"認可外","Add1":"室蘭市輪西町1-4-3","Add2":null,"url":null,"TEL":"0143-47-3715","FAX":null,"Full":"36","AgeS":null,"AgeE":null,"Open":"7:30","Close":"19:30","H24":null,"Memo":"18：30～19：30","Extra":"Y","Temp":"Y","Holiday":"N","Night":null,"Vacancy":null,"VacancyDate":null}},{"type":"Feature","geometry":{"type":"Point","coordinates":[141.009134,42.334408]},"properties":{"Name":"こどもの森幼保園","Label":"こどもの森幼保園","Owner":"ＮＰＯ法人こどもの森幼保園","Ownership":"私立","Proof":"Y","Shanai":"N","Kodomo":"N","Type":"認可外","Add1":"室蘭市輪西町1-29-5","Add2":null,"url":null,"TEL":"0143-47-6114","FAX":null,"Full":"30","AgeS":null,"AgeE":null,"Open":"8:00","Close":"18:00","H24":null,"Memo":"17：00～18：00","Extra":"Y","Temp":"N","Holiday":"N","Night":null,"Vacancy":null,"VacancyDate":null}},{"type":"Feature","geometry":{"type":"Point","coordinates":[141.023436,42.343782]},"properties":{"Name":"室蘭美園幼稚園","Label":"室蘭美園幼稚園","Owner":"学校法人美園学園","Ownership":"私立","Proof":"N","Shanai":"N","Kodomo":"N","Type":"幼稚園","Add1":"室蘭市東町1-20-23","Add2":null,"url":null,"TEL":"0143-43-3130","FAX":null,"Full":"210","AgeS":null,"AgeE":null,"Open":null,"Close":null,"H24":null,"Memo":null,"Extra":null,"Temp":null,"Holiday":null,"Night":null,"Vacancy":null,"VacancyDate":null}},{"type":"Feature","geometry":{"type":"Point","coordinates":[141.007962,42.364381]},"properties":{"Name":"八丁平美園幼稚園","Label":"八丁平美園幼稚園","Owner":"学校法人美園学園","Ownership":"私立","Proof":"N","Shanai":"N","Kodomo":"N","Type":"幼稚園","Add1":"室蘭市八丁平5-47-1","Add2":null,"url":null,"TEL":"0143-41-3456","FAX":null,"Full":"140","AgeS":null,"AgeE":null,"Open":null,"Close":null,"H24":null,"Memo":null,"Extra":null,"Temp":null,"Holiday":null,"Night":null,"Vacancy":null,"VacancyDate":null}},{"type":"Feature","geometry":{"type":"Point","coordinates":[140.994014,42.312753]},"properties":{"Name":"すみれ文化幼稚園","Label":"すみれ文化幼稚園","Owner":"学校法人北斗文化学園","Ownership":"私立","Proof":"N","Shanai":"N","Kodomo":"N","Type":"幼稚園","Add1":"室蘭市母恋南町2-11-9","Add2":null,"url":null,"TEL":"0143-25-6611","FAX":null,"Full":"120","AgeS":null,"AgeE":null,"Open":null,"Close":null,"H24":null,"Memo":null,"Extra":null,"Temp":null,"Holiday":null,"Night":null,"Vacancy":null,"VacancyDate":null}},{"type":"Feature","geometry":{"type":"Point","coordinates":[140.999769,42.320519]},"properties":{"Name":"室蘭幼稚園","Label":"室蘭幼稚園","Owner":"学校法人おおぞら学園","Ownership":"私立","Proof":"N","Shanai":"N","Kodomo":"N","Type":"幼稚園","Add1":"室蘭市御前水町2-8-19","Add2":null,"url":null,"TEL":"0143-23-2554","FAX":null,"Full":"225","AgeS":null,"AgeE":null,"Open":null,"Close":null,"H24":null,"Memo":null,"Extra":null,"Temp":null,"Holiday":null,"Night":null,"Vacancy":null,"VacancyDate":null}},{"type":"Feature","geometry":{"type":"Point","coordinates":[140.989713,42.363648]},"properties":{"Name":"桜ヶ丘幼稚園","Label":"桜ヶ丘幼稚園","Owner":"学校法人ならの実学園","Ownership":"私立","Proof":"N","Shanai":"N","Kodomo":"N","Type":"幼稚園","Add1":"室蘭市港北町2-26-30","Add2":null,"url":null,"TEL":"0143-58-3265","FAX":null,"Full":"100","AgeS":null,"AgeE":null,"Open":null,"Close":null,"H24":null,"Memo":null,"Extra":null,"Temp":null,"Holiday":null,"Night":null,"Vacancy":null,"VacancyDate":null}},{"type":"Feature","geometry":{"type":"Point","coordinates":[141.032142,42.364956]},"properties":{"Name":"ベネディクト幼稚園","Label":"ベネディクト幼稚園","Owner":"学校法人海星学院","Ownership":"私立","Proof":"N","Shanai":"N","Kodomo":"N","Type":"幼稚園","Add1":"室蘭市高砂町3-7-7","Add2":null,"url":null,"TEL":"0143-46-2525","FAX":null,"Full":"120","AgeS":null,"AgeE":null,"Open":null,"Close":null,"H24":null,"Memo":null,"Extra":null,"Temp":null,"Holiday":null,"Night":null,"Vacancy":null,"VacancyDate":null}},{"type":"Feature","geometry":{"type":"Point","coordinates":[141.008489,42.353159]},"properties":{"Name":"室蘭中島幼稚園","Label":"室蘭中島幼稚園","Owner":"学校法人室蘭中島学園","Ownership":"私立","Proof":"N","Shanai":"N","Kodomo":"N","Type":"幼稚園","Add1":"室蘭市中島本町1-8-5","Add2":null,"url":null,"TEL":"0143-44-1870","FAX":null,"Full":"210","AgeS":null,"AgeE":null,"Open":null,"Close":null,"H24":null,"Memo":null,"Extra":null,"Temp":null,"Holiday":null,"Night":null,"Vacancy":null,"VacancyDate":null}},{"type":"Feature","geometry":{"type":"Point","coordinates":[140.936219,42.375559]},"properties":{"Name":"ピノキオ幼稚園","Label":"ピノキオ幼稚園","Owner":"学校法人坂本学園","Ownership":"私立","Proof":"N","Shanai":"N","Kodomo":"N","Type":"幼稚園","Add1":"室蘭市白鳥台2-4-2","Add2":null,"url":null,"TEL":"0143-59-2295","FAX":null,"Full":"200","AgeS":null,"AgeE":null,"Open":null,"Close":null,"H24":null,"Memo":null,"Extra":null,"Temp":null,"Holiday":null,"Night":null,"Vacancy":null,"VacancyDate":null}},{"type":"Feature","geometry":{"type":"Point","coordinates":[141.035527,42.365631]},"properties":{"Name":"文化学園大学附属幼稚園","Label":"文化学園大学附属幼稚園","Owner":"学校法人文化学園","Ownership":"私立","Proof":"N","Shanai":"N","Kodomo":"N","Type":"幼稚園","Add1":"室蘭市高砂町3-11-50","Add2":null,"url":null,"TEL":"0143-44-0566","FAX":null,"Full":"105","AgeS":null,"AgeE":null,"Open":null,"Close":null,"H24":null,"Memo":null,"Extra":null,"Temp":null,"Holiday":null,"Night":null,"Vacancy":null,"VacancyDate":null}},{"type":"Feature","geometry":{"type":"Point","coordinates":[140.944689,42.335656]},"properties":{"Name":"清泉幼稚園","Label":"清泉幼稚園","Owner":"学校法人明星学園","Ownership":"私立","Proof":"N","Shanai":"N","Kodomo":"N","Type":"幼稚園","Add1":"室蘭市祝津町3-10-7","Add2":null,"url":null,"TEL":"0143-27-5444","FAX":null,"Full":"140","AgeS":null,"AgeE":null,"Open":null,"Close":null,"H24":null,"Memo":null,"Extra":null,"Temp":null,"Holiday":null,"Night":null,"Vacancy":null,"VacancyDate":null}},{"type":"Feature","geometry":{"type":"Point","coordinates":[141.02403,42.360225]},"properties":{"Name":"室蘭めばえ幼稚園","Label":"室蘭めばえ幼稚園","Owner":"学校法人北海道キリスト教学園","Ownership":"私立","Proof":"N","Shanai":"N","Kodomo":"N","Type":"幼稚園","Add1":"室蘭市知利別町2-15-15","Add2":null,"url":null,"TEL":"0143-44-2388","FAX":null,"Full":"90","AgeS":null,"AgeE":null,"Open":null,"Close":null,"H24":null,"Memo":null,"Extra":null,"Temp":null,"Holiday":null,"Night":null,"Vacancy":null,"VacancyDate":null}}]}